time,long,lat,dt,H,Roll,pitch,yaw,S,truckSpeed,truck_Lat,truck_long,Tension
0,130.188888,33.146888,0.15,38.88,-1,-29,173,8,0,33.147,130.1888,4.53
0.15,130.188888,33.146888,0.15,38.94,-1,-33,173,8,0.07408,33.14700728,130.1888112,9.06
0.3,130.188888,33.146888,0.15,38.75,-1,-38,174,8,0.08334,33.14700708,130.1888113,4.53
0.45,130.188888,33.146892,0.15,38.75,0,-39,174,8,0.07871,33.14700698,130.1888113,4.53
0.6,130.188888,33.146892,0.15,38.75,0,-39,174,8,0.03704,33.14700683,130.1888112,9.06
0.75,130.188888,33.146892,0.15,38.75,-1,-40,174,8,0.25928,33.14700682,130.1888112,9.06
0.9,130.188888,33.146892,0.15,38.69,0,-39,175,8,0.21298,33.14700677,130.1888112,9.06
1.05,130.188873,33.1469,0.15,38.69,-1,-38,174,8,0.09723,33.1470067,130.1888111,9.06
1.2,130.188873,33.1469,0.15,38.88,0,-39,175,8,0.11112,33.14700665,130.188811,9.06
1.35,130.188873,33.146903,0.15,38.88,0,-42,175,8,0.84729,33.14700669,130.1888109,9.06
1.5,130.188873,33.146907,0.15,39.07,0,-41,175,8,1.45382,33.14700697,130.1888107,4.53
1.65,130.188873,33.146911,0.15,39.07,0,-40,175,8,1.92145,33.14700739,130.1888103,9.06
1.8,130.188858,33.146915,0.15,39.07,0,-40,175,8,2.24092,33.14700787,130.1888098,9.06
1.95,130.188858,33.146915,0.15,38.75,0,-40,176,8,2.67151,33.14700862,130.1888092,11.325
2.1,130.188858,33.146915,0.15,38.75,2,-42,177,8,3.00024,33.1470094,130.1888086,31.71
2.25,130.188858,33.146926,0.15,39.07,0,-40,175,8,3.2873,33.14701025,130.1888079,63.42
2.4,130.188858,33.14693,0.15,39.07,0,-40,175,8,3.59288,33.14701122,130.1888071,77.01
2.55,130.188858,33.14693,0.15,39.07,-3,-38,173,8,4.05125,33.1470124,130.1888062,88.335
2.7,130.188858,33.146934,0.15,38.94,-4,-36,171,8,4.50962,33.14701367,130.1888052,108.72
2.85,130.188842,33.146942,0.15,38.94,-4,-37,171,8,4.91706,33.14701502,130.1888041,163.08
3,130.188842,33.146949,0.15,38.94,-4,-37,171,8,5.22264,33.14701648,130.1888029,212.91
3.15,130.188842,33.146949,0.15,38.94,-5,-40,171,8,5.76435,33.14701822,130.1888015,296.715
3.3,130.188842,33.146953,0.15,38.94,-6,-40,169,8,6.39866,33.14702023,130.1888001,289.92
3.45,130.188842,33.146953,0.15,38.94,-7,-44,169,8,6.945,33.14702238,130.1887986,267.27
3.6,130.188842,33.146953,0.15,38.94,-7,-44,169,8,7.2228,33.14702458,130.1887969,240.09
3.75,130.188842,33.146953,0.15,38.5,-9,-48,168,8,7.62561,33.14702688,130.1887952,169.875
3.9,130.188827,33.146968,0.15,38.63,-11,-49,166,8,8.03768,33.14702938,130.1887933,235.56
4.05,130.188827,33.146968,0.15,38.63,-11,-48,166,8,8.45901,33.14703205,130.1887913,115.515
4.2,130.188827,33.146976,0.15,38.63,-11,-48,166,8,8.8896,33.14703488,130.1887891,67.95
4.35,130.188796,33.146976,0.15,42.69,-14,-45,164,8,9.33408,33.14703796,130.1887869,45.3
4.5,130.188781,33.146984,0.15,42.69,-14,-44,166,8,9.59336,33.14704108,130.1887846,58.89
4.65,130.188766,33.146999,0.15,52.5,-13,-39,169,8,9.78319,33.14704426,130.1887823,43.035
4.8,130.188766,33.147014,0.15,52.5,-13,-39,169,8,10.01932,33.14704753,130.18878,31.71
4.95,130.188751,33.147014,0.15,52.5,-9,-35,174,8,10.28323,33.147051,130.1887776,47.565
5.1,130.188735,33.147037,0.15,54.94,-7,-21,177,8,10.62122,33.14705462,130.1887751,54.36
5.25,130.188735,33.147037,0.15,54.94,-7,-21,177,8,10.98236,33.14705834,130.1887727,56.625
5.4,130.188735,33.147037,0.15,54.94,-8,-21,176,8,11.31572,33.14706212,130.1887702,67.95
5.55,130.188735,33.147037,0.15,55.63,-11,-3,176,8,11.56574,33.14706594,130.1887677,74.745
5.7,130.188735,33.147037,0.15,55.63,-13,6,174,8,12.27876,33.1470698,130.1887649,63.42
5.85,130.188735,33.147037,0.15,54.63,-14,10,174,8,13.21402,33.14707383,130.1887619,56.625
6,130.188735,33.147117,0.15,54.63,-14,10,174,8,14.13076,33.14707817,130.1887587,72.48
6.15,130.188674,33.147117,0.15,54.63,-14,16,176,8,15.21418,33.14708289,130.188755,70.215
6.3,130.188674,33.147129,0.15,54.94,-14,15,181,8,16.0568405,33.14708781,130.1887512,72.48
6.45,130.188659,33.147136,0.15,54.94,-13,14,183,8,16.77449075,33.14709294,130.1887472,104.19
6.6,130.188659,33.147148,0.15,54.94,-13,14,183,8,17.48288,33.14709832,130.188743,135.9
6.75,130.188659,33.147148,0.15,55.69,-12,13,188,8,18.53852,33.14710409,130.1887387,99.66
6.9,130.188659,33.147163,0.15,55.69,-10,12,194,8,19.3534005,33.14711017,130.1887342,95.13
7.05,130.188659,33.147163,0.15,55.69,-10,14,197,8,19.97845075,33.1471164,130.1887296,86.07
7.2,130.188659,33.14719,0.15,55.69,-10,14,197,8,20.4646,33.14712265,130.1887247,95.13
7.35,130.188644,33.14719,0.15,56.38,-8,12,201,8,21.07576,33.14712923,130.1887195,74.745
7.5,130.188644,33.147209,0.15,56.32,0,13,205,8,21.5572795,33.14713596,130.1887142,95.13
7.65,130.188644,33.147209,0.15,56.32,4,14,207,8,22.07583925,33.14714286,130.1887088,54.36
7.8,130.188644,33.147209,0.15,56.32,4,14,207,8,22.79812,33.14714995,130.1887035,45.3
7.95,130.188644,33.147209,0.15,55.94,12,10,208,8,22.85368,33.147157,130.1886979,45.3
8.1,130.188629,33.147262,0.15,55.94,18,12,203,8,23.6963395,33.14716418,130.188692,54.36
8.25,130.188629,33.147285,0.15,55.19,23,12,200,8,24.59918925,33.14717149,130.188686,40.77
8.4,130.188629,33.1473,0.15,55.19,23,12,200,8,24.83532,33.1471789,130.1886798,45.3
8.55,130.188629,33.1473,0.15,55.19,26,11,194,8,24.61308,33.14718643,130.1886735,31.71
8.7,130.188629,33.147315,0.15,53.94,31,14,187,8,24.99274,33.14719422,130.1886674,45.3
8.85,130.188613,33.147327,0.15,53.94,33,13,181,8,25.58538025,33.1472022,130.1886613,63.42
9,130.188613,33.147327,0.15,53.94,33,13,181,8,26.002081,33.14721032,130.1886553,90.6
9.15,130.188613,33.147327,0.15,52.5,32,13,173,8,26.585461,33.14721877,130.1886492,99.66
9.3,130.188598,33.147357,0.15,52.5,31,10,167,8,26.9188205,33.14722718,130.1886428,95.13
9.45,130.188598,33.147357,0.15,52.5,30,9,164,8,27.22903,33.1472356,130.1886362,88.335
9.6,130.188598,33.147388,0.15,52.5,30,9,164,8,27.74296,33.14724407,130.1886294,54.36
9.75,130.188583,33.147388,0.15,52.38,26,6,162,8,28.27078,33.14725284,130.1886226,43.035
9.9,130.188583,33.147399,0.15,51.94,21,8,161,8,28.8078605,33.14726193,130.1886158,36.24
10.05,130.188583,33.147399,0.15,51.94,20,7,162,8,29.2523405,33.14727121,130.1886091,27.18
10.2,130.188583,33.147399,0.15,51.94,20,7,162,8,29.502359,33.1472806,130.1886023,27.18
10.35,130.188583,33.147399,0.15,51.94,15,2,164,8,29.6273705,33.14729005,130.1885955,43.035
10.5,130.188583,33.147399,0.15,51.94,12,-3,164,8,30.13204,33.14729958,130.1885886,45.3
10.65,130.188583,33.147399,0.15,53.94,10,-2,164,8,30.7107895,33.14730925,130.1885818,54.36
10.8,130.188583,33.147449,0.15,53.94,10,-2,164,8,31.058041,33.14731908,130.188575,54.36
10.95,130.188507,33.147449,0.15,53.94,7,1,163,8,31.0024795,33.14732897,130.1885682,77.01
11.1,130.188507,33.147449,0.15,53.5,4,5,164,8,31.2617595,33.14733886,130.1885613,58.89
11.25,130.188491,33.147464,0.15,53.5,3,7,165,8,31.59049,33.14734875,130.1885544,58.89
11.4,130.188491,33.147464,0.15,53.5,3,7,165,8,31.74328,33.14735867,130.1885477,58.89
11.55,130.188491,33.147464,0.15,53.5,2,9,167,8,31.67383075,33.14736884,130.1885409,63.42
11.7,130.188476,33.147483,0.15,53.75,0,10,169,8,31.659941,33.14737896,130.1885344,58.89
11.85,130.188476,33.147483,0.15,53.75,0,10,169,8,31.664571,33.14738913,130.188528,47.565
12,130.188476,33.147483,0.15,53.75,0,10,169,8,31.650681,33.14739948,130.1885214,49.83
12.15,130.188446,33.147499,0.15,53.57,0,8,169,8,31.6784595,33.14740966,130.1885149,43.035
12.3,130.188446,33.147506,0.15,53.94,-1,5,170,8,31.4562195,33.14741964,130.1885082,45.3
12.45,130.188446,33.147506,0.15,53.94,-2,6,170,8,31.16916,33.14742945,130.1885015,47.565
12.6,130.188446,33.147529,0.15,53.94,-2,6,170,8,31.00248,33.14743908,130.1884948,49.83
12.75,130.188415,33.147529,0.15,53.94,-2,7,172,8,30.80802,33.147449,130.188488,61.155
12.9,130.188415,33.147529,0.15,53.94,-3,6,172,8,31.12286,33.14745907,130.1884813,63.42
13.05,130.188369,33.147598,0.15,53.94,-4,7,172,8,31.49788975,33.14746923,130.1884747,58.89
13.2,130.188369,33.147598,0.15,53.94,-4,7,172,8,31.483999,33.14747943,130.188468,63.42
13.35,130.188369,33.147598,0.15,53.94,-4,8,172,8,31.789579,33.14748977,130.1884613,77.01
13.5,130.188339,33.14764,0.15,54.07,-4,10,173,8,32.0581195,33.14750006,130.1884543,63.42
13.65,130.188323,33.147659,0.15,54.07,-5,11,174,8,32.35443975,33.14751043,130.1884472,63.42
13.8,130.188323,33.14767,0.15,54.07,-5,11,174,8,32.743359,33.147521,130.1884402,58.89
13.95,130.188323,33.14767,0.15,54.25,-5,11,175,8,33.062829,33.14753168,130.1884329,58.89
14.1,130.188308,33.147689,0.15,54.25,-5,10,175,8,33.41008,33.14754249,130.1884255,63.42
14.25,130.188293,33.147705,0.15,54.19,-5,9,176,8,33.706401,33.14755344,130.1884181,70.215
14.4,130.188293,33.147724,0.15,54.19,-5,9,176,8,33.873081,33.14756452,130.1884108,67.95
14.55,130.188278,33.147724,0.15,54.19,-5,8,176,9,34.0814295,33.14757557,130.1884032,67.95
14.7,130.188262,33.147743,0.15,54.38,-6,6,176,9,34.3823795,33.14758664,130.1883955,63.42
14.85,130.188262,33.147758,0.15,54.38,-6,8,175,9,34.67870025,33.14759773,130.1883877,49.83
15,130.188262,33.147758,0.15,54.38,-6,8,175,9,34.873161,33.1476088,130.1883799,54.36
15.15,130.188262,33.147758,0.15,54.75,-6,8,175,9,35.20651875,33.14762005,130.1883719,52.095
15.3,130.188217,33.147796,0.15,54.75,-7,9,175,9,35.410238,33.14763139,130.1883639,63.42
15.45,130.188217,33.147811,0.15,54.32,-7,9,176,9,35.6278485,33.14764287,130.1883558,77.01
15.6,130.188217,33.147811,0.15,54.32,-7,9,176,9,36.00288,33.14765452,130.1883477,72.48
15.75,130.188217,33.147811,0.15,54.32,-7,9,176,9,36.25289925,33.14766615,130.1883395,65.685
15.9,130.188186,33.14785,0.15,54.69,-7,10,177,9,36.5584795,33.14767794,130.1883312,77.01
16.05,130.188171,33.147869,0.15,54.69,-6,10,177,9,36.88258,33.14768982,130.1883228,83.805
16.2,130.188171,33.147869,0.15,54.69,-6,10,177,9,37.18816,33.14770173,130.1883142,63.42
16.35,130.188171,33.147869,0.15,54.69,-6,11,176,9,37.21594075,33.14771373,130.1883058,65.685
16.5,130.188171,33.147869,0.15,54.44,-6,13,175,9,37.38262,33.14772578,130.1882974,67.95
16.65,130.188171,33.147869,0.15,54.44,-7,11,176,9,37.489109,33.14773786,130.188289,61.155
16.8,130.188171,33.147869,0.15,54.44,-7,11,176,9,37.336319,33.14774993,130.1882807,77.01
16.95,130.188171,33.147869,0.15,54.44,-8,11,176,9,37.4335505,33.14776222,130.1882725,90.6
17.1,130.188171,33.147869,0.15,54.5,-8,11,176,9,37.4381805,33.14777448,130.1882642,126.84
17.25,130.188171,33.147869,0.15,54.5,-9,10,176,9,37.39187975,33.14778678,130.188256,79.275
17.4,130.188171,33.147991,0.15,54.5,-9,10,176,9,37.336319,33.1477992,130.1882479,54.36
17.55,130.188095,33.147991,0.15,54.82,-9,10,176,9,37.39187975,33.14781157,130.1882398,54.36
17.7,130.188079,33.148006,0.15,54.82,-9,10,177,9,37.456699,33.14782398,130.1882318,45.3
17.85,130.188064,33.148025,0.15,54.63,-9,11,178,9,37.5770785,33.14783643,130.1882238,45.3
18,130.188064,33.148025,0.15,54.63,-9,11,178,9,37.79932,33.14784897,130.1882159,49.83
18.15,130.188064,33.148025,0.15,54.63,-9,12,178,9,37.78543,33.14786163,130.188208,65.685
18.3,130.188064,33.148025,0.15,54.63,-10,10,179,9,37.79006,33.14787434,130.1882001,63.42
18.45,130.188064,33.148025,0.15,54.82,-11,5,181,9,37.81321025,33.14788713,130.1881922,65.685
18.6,130.188018,33.148094,0.15,54.82,-11,5,181,9,37.854881,33.1479,130.1881843,40.77
18.75,130.188018,33.148094,0.15,55.44,-10,10,181,9,37.88265875,33.14791268,130.1881764,40.77
18.9,130.188018,33.148113,0.15,55.44,-8,11,182,9,37.9196985,33.14792543,130.1881683,36.24
19.05,130.188003,33.148128,0.15,55.13,-7,13,181,9,37.96136925,33.14793828,130.1881602,29.445
19.2,130.188003,33.148147,0.15,55.13,-7,13,181,9,38.00304,33.14795125,130.1881522,36.24
19.35,130.187988,33.148147,0.15,55.13,-7,17,182,9,38.03082075,33.14796428,130.188144,74.745
19.5,130.187988,33.148162,0.15,54.57,-8,15,182,9,38.049341,33.14797736,130.188136,86.07
19.65,130.187973,33.148181,0.15,54.57,-8,13,181,9,38.0817505,33.14799043,130.1881279,83.805
19.8,130.187973,33.148197,0.15,54.57,-8,13,181,9,38.151199,33.14800343,130.1881199,72.48
19.95,130.187973,33.148197,0.15,55.32,-5,14,182,9,38.17897975,33.14801626,130.1881116,65.685
20.1,130.187957,33.148212,0.15,55.32,-4,14,182,9,38.1604595,33.14802907,130.1881034,81.54
20.25,130.187957,33.148231,0.15,55.5,-4,14,182,9,38.12341875,33.14804186,130.1880951,97.395
20.4,130.187957,33.148242,0.15,55.5,-4,14,182,9,38.095638,33.14805465,130.1880869,108.72
20.55,130.187942,33.148242,0.15,55.5,-3,14,182,9,38.04008025,33.14806759,130.1880789,90.6
20.7,130.187942,33.148258,0.15,55.57,-2,8,182,9,38.0123005,33.14808053,130.188071,113.25
20.85,130.187927,33.148277,0.15,55.57,-2,6,182,9,37.99841,33.14809339,130.1880631,120.045
21,130.187927,33.148277,0.15,55.57,-2,6,182,9,37.98452,33.14810612,130.1880549,113.25
21.15,130.187927,33.148277,0.15,55.94,-1,6,183,9,37.7483915,33.1481188,130.1880468,81.54
21.3,130.187896,33.148311,0.15,55.94,0,6,184,9,37.8456215,33.14813138,130.1880387,77.01
21.45,130.187896,33.14833,0.15,56.44,1,5,185,9,38.01693075,33.1481439,130.1880305,56.625
21.6,130.187896,33.148353,0.15,56.44,1,5,185,9,38.00304,33.14815643,130.1880223,40.77
21.75,130.187881,33.148353,0.15,56.44,2,3,185,9,37.97526,33.14816921,130.1880144,36.24
21.9,130.187881,33.148353,0.15,56.13,5,4,184,9,37.97526,33.14818197,130.1880064,36.24
22.05,130.187881,33.148353,0.15,56.13,7,2,183,9,37.98915,33.1481947,130.1879984,38.505
22.2,130.187881,33.148353,0.15,56.13,7,2,183,9,38.00304,33.1482074,130.1879903,40.77
22.35,130.187881,33.148353,0.15,56.19,7,2,179,9,37.98915,33.14822004,130.1879821,86.07
22.5,130.18785,33.148429,0.15,56.19,7,7,176,9,38.0030405,33.14823272,130.1879739,126.84
22.65,130.18785,33.148429,0.15,55.57,4,12,174,9,38.021561,33.14824541,130.1879656,101.925
22.8,130.18785,33.148429,0.15,55.57,4,12,174,9,38.021561,33.14825808,130.1879572,81.54
22.95,130.18785,33.148429,0.15,55.57,3,15,174,9,38.00767025,33.14827042,130.1879486,40.77
23.1,130.18785,33.148429,0.15,54.88,2,18,175,9,37.99378,33.14828266,130.1879399,36.24
23.25,130.18785,33.148429,0.15,54.88,1,19,177,9,37.98915,33.14829496,130.1879313,43.035
23.4,130.18785,33.148429,0.15,54.88,1,19,177,9,38.00304,33.1483075,130.1879227,40.77
23.55,130.18785,33.148429,0.15,54.63,2,18,178,9,38.00304,33.14832007,130.1879144,54.36
23.7,130.18785,33.148429,0.15,54.63,6,9,178,9,37.9567395,33.14833273,130.1879061,72.48
23.85,130.187759,33.14854,0.15,55.44,5,4,173,9,37.92432925,33.14834538,130.1878978,95.13
24,130.187759,33.14854,0.15,55.44,5,4,173,9,37.966,33.14835793,130.1878893,90.6
24.15,130.187759,33.14854,0.15,55.44,4,6,171,9,38.02156075,33.14837053,130.187881,77.01
24.3,130.187728,33.148571,0.15,54.38,1,13,171,9,38.030821,33.14838326,130.1878728,67.95
24.45,130.187713,33.14859,0.15,54.38,-1,13,171,9,37.970631,33.14839595,130.1878647,70.215
24.6,130.187713,33.148605,0.15,54.38,-1,13,171,9,37.817841,33.14840843,130.1878564,67.95
24.75,130.187713,33.148605,0.15,54.07,-1,14,172,9,37.845621,33.14842063,130.1878478,67.95
24.9,130.187698,33.148616,0.15,54.07,-2,12,173,9,37.90118,33.14843301,130.1878392,58.89
25.05,130.187683,33.148632,0.15,54.5,-3,6,175,9,37.9150695,33.14844551,130.1878306,63.42
25.2,130.187683,33.148632,0.15,54.5,-3,6,175,9,37.817841,33.1484581,130.187822,58.89
25.35,130.187683,33.148632,0.15,54.5,-3,5,175,9,37.845621,33.1484706,130.1878135,43.035
25.5,130.187683,33.148632,0.15,54.69,-3,7,176,9,37.845621,33.14848286,130.1878049,45.3
25.65,130.187683,33.148632,0.15,54.69,-2,7,177,9,37.84562125,33.14849495,130.1877962,70.215
25.8,130.187683,33.148704,0.15,54.69,-2,7,177,9,37.873402,33.14850697,130.1877873,81.54
25.95,130.187637,33.148704,0.15,55.19,-2,7,177,9,37.92895975,33.148519,130.1877785,72.48
26.1,130.187637,33.148704,0.15,55.19,-2,9,177,9,37.947479,33.14853111,130.1877697,72.48
26.25,130.187606,33.148738,0.15,55,-2,11,177,9,37.96136925,33.14854338,130.1877609,67.95
26.4,130.187606,33.148738,0.15,55,-2,11,177,9,38.00304,33.1485559,130.1877521,67.95
26.55,130.187606,33.148738,0.15,55,-2,11,178,9,38.04471075,33.14856838,130.1877434,108.72
26.7,130.187591,33.148777,0.15,55,-1,14,178,9,38.2623215,33.14858088,130.1877346,149.49
26.85,130.187576,33.148788,0.15,55,-1,12,178,9,38.4428915,33.14859338,130.1877259,140.43
27,130.187576,33.148807,0.15,55,-1,12,178,9,38.37344,33.14860588,130.187717,90.6
27.15,130.187561,33.148807,0.15,55.13,0,11,179,9,38.3178785,33.1486181,130.1877079,81.54
27.3,130.187561,33.148807,0.15,55.13,0,11,181,9,38.2623195,33.14863037,130.187699,77.01
27.45,130.187545,33.148841,0.15,55.19,0,10,182,9,38.280841,33.14864282,130.1876902,72.48
27.6,130.187545,33.14886,0.15,55.19,0,10,182,9,38.447521,33.14865558,130.1876813,67.95
27.75,130.18753,33.14886,0.15,55.19,0,10,183,9,38.40585025,33.14866818,130.1876725,63.42
27.9,130.18753,33.14886,0.15,55.25,1,5,183,9,38.3641795,33.14868076,130.1876636,58.89
28.05,130.187515,33.148899,0.15,55.25,5,2,179,9,38.331769,33.1486934,130.1876548,47.565
28.2,130.187515,33.148918,0.15,55.25,5,2,179,9,38.317879,33.14870618,130.1876459,45.3
28.35,130.1875,33.148918,0.15,55.94,5,5,178,9,38.2762105,33.14871891,130.1876369,38.505
28.5,130.1875,33.148918,0.15,55.94,6,10,178,9,38.2808395,33.14873146,130.1876278,40.77
28.65,130.1875,33.148918,0.15,55.19,4,14,179,9,38.341029,33.14874405,130.1876187,49.83
28.8,130.1875,33.148979,0.15,55.19,4,14,179,9,38.466042,33.1487569,130.1876097,67.95
28.95,130.187454,33.148979,0.15,55.19,4,16,179,9,38.466042,33.14876966,130.1876007,99.66
29.1,130.187454,33.148979,0.15,55.19,5,16,178,9,38.5030805,33.14878241,130.1875918,99.66
29.25,130.187454,33.148979,0.15,55.32,4,17,176,9,38.540119,33.14879513,130.1875829,108.72
29.4,130.187454,33.149024,0.15,55.32,4,17,176,9,38.540119,33.14880782,130.1875741,95.13
29.55,130.187423,33.149024,0.15,54.75,3,18,174,9,38.540119,33.14882059,130.1875653,79.275
29.7,130.187408,33.14904,0.15,54.75,3,21,175,9,38.5586395,33.14883327,130.1875565,72.48
29.85,130.187393,33.149051,0.15,54.57,2,17,177,9,38.57716,33.14884585,130.1875477,86.07
30,130.187393,33.149051,0.15,54.57,2,17,177,9,38.57716,33.14885835,130.1875386,95.13
30.15,130.187393,33.149051,0.15,54.57,2,13,177,9,38.60494075,33.14887078,130.1875296,70.215
30.3,130.187393,33.149051,0.15,55,3,6,176,9,38.6419815,33.14888313,130.1875206,45.3
30.45,130.187393,33.149051,0.15,55,4,3,174,9,38.669762,33.14889552,130.1875116,45.3
30.6,130.187393,33.149127,0.15,55,4,3,174,9,38.669762,33.14890802,130.1875027,45.3
30.75,130.187347,33.149127,0.15,55.32,2,3,173,9,38.836439,33.1489203,130.1874937,36.24
30.9,130.187332,33.149147,0.15,55.32,0,6,172,9,38.9012585,33.14893277,130.1874847,49.83
31.05,130.187316,33.149162,0.15,54.75,-3,6,172,9,38.90125975,33.14894533,130.1874757,77.01
31.2,130.187316,33.149185,0.15,54.75,-3,6,172,9,38.873482,33.14895793,130.1874666,90.6
31.35,130.187301,33.149185,0.15,54.75,-3,7,173,9,39.01238125,33.14897023,130.1874576,110.985
31.5,130.187301,33.1492,0.15,55.19,-4,10,174,9,39.058681,33.14898255,130.1874485,104.19
31.65,130.187286,33.149215,0.15,55.19,-5,13,174,9,39.0725705,33.14899492,130.1874394,74.745
31.8,130.187286,33.14923,0.15,55.19,-5,13,174,9,39.114239,33.14900737,130.1874305,63.42
31.95,130.187271,33.14923,0.15,55.19,-6,14,174,9,39.15590975,33.14901994,130.1874215,70.215
32.1,130.187271,33.14923,0.15,55.19,-6,17,175,9,39.2068405,33.1490325,130.1874126,72.48
32.25,130.18724,33.149261,0.15,54.94,-7,14,177,9,39.25314025,33.14904503,130.1874036,74.745
32.4,130.18724,33.14928,0.15,54.94,-7,14,177,9,39.280918,33.1490575,130.1873948,67.95
32.55,130.187225,33.14928,0.15,54.94,-8,10,178,9,39.294808,33.14907001,130.1873859,67.95
32.7,130.187225,33.14928,0.15,54.94,-7,4,179,9,39.3179585,33.14908261,130.1873771,58.89
32.85,130.187194,33.149314,0.15,55.32,-7,6,181,9,39.3549995,33.14909528,130.1873683,54.36
33,130.187194,33.149314,0.15,55.32,-7,6,181,9,39.410561,33.149108,130.1873593,49.83
33.15,130.187179,33.149337,0.15,55.88,-7,8,181,9,39.46611875,33.14912083,130.1873502,54.36
33.3,130.187179,33.149337,0.15,55.88,-6,9,179,9,39.4938985,33.14913372,130.1873413,67.95
33.45,130.187179,33.149337,0.15,55.88,-6,11,179,9,39.507789,33.1491466,130.1873324,74.745
33.6,130.187179,33.149337,0.15,55.88,-6,11,179,9,39.521679,33.14915942,130.1873238,72.48
33.75,130.187179,33.149337,0.15,55.32,-8,12,179,9,39.535569,33.14917223,130.1873152,72.48
33.9,130.187179,33.149337,0.15,55.38,-7,12,181,9,39.68836,33.14918512,130.1873065,67.95
34.05,130.187133,33.149425,0.15,55.38,-8,14,181,9,39.82263075,33.14919807,130.1872976,83.805
34.2,130.187133,33.14944,0.15,55.38,-8,14,181,9,39.78096,33.14921107,130.1872888,67.95
34.35,130.187118,33.14944,0.15,55.19,-7,14,181,9,39.75317925,33.1492241,130.1872801,70.215
34.5,130.187103,33.149456,0.15,55.19,-6,14,182,9,39.7531795,33.14923703,130.1872712,72.48
34.65,130.187088,33.149475,0.15,55.32,-6,11,182,9,39.78096025,33.14924993,130.1872624,67.95
34.8,130.187088,33.14949,0.15,55.32,-6,11,182,9,39.836521,33.14926285,130.1872536,72.48
34.95,130.187072,33.14949,0.15,55.32,-6,11,182,9,39.93375025,33.14927599,130.1872447,70.215
35.1,130.187072,33.14949,0.15,55.32,-5,10,182,9,40.021719,33.14928913,130.1872359,81.54
35.25,130.187072,33.14949,0.15,55.19,-4,9,182,9,40.1050585,33.1493023,130.187227,74.745
35.4,130.187072,33.149547,0.15,55.19,-4,9,182,9,40.1884,33.14931557,130.1872181,72.48
35.55,130.187042,33.149547,0.15,55.69,-3,8,182,9,40.23007075,33.14932857,130.1872091,70.215
35.7,130.187042,33.149566,0.15,55.69,-4,9,181,9,40.2624795,33.14934163,130.1872002,90.6
35.85,130.187026,33.149585,0.15,55.32,-3,10,181,9,40.2995185,33.14935482,130.1871915,106.455
36,130.187026,33.149604,0.15,55.32,-3,10,181,9,40.35508,33.1493682,130.1871829,113.25
36.15,130.187011,33.149604,0.15,55.32,-3,10,182,9,40.4523085,33.14938138,130.187174,113.25
36.3,130.186996,33.149623,0.15,55.32,-2,9,182,9,40.540279,33.14939469,130.187165,95.13
36.45,130.186996,33.149623,0.15,55.32,-2,9,182,9,40.6143605,33.149408,130.1871561,104.19
36.6,130.186996,33.149658,0.15,55.32,-2,9,182,9,40.669922,33.14942115,130.187147,90.6
36.75,130.186981,33.149658,0.15,55.57,-2,9,182,9,40.86437975,33.14943451,130.1871379,65.685
36.9,130.186981,33.149677,0.15,55.57,-2,10,181,9,40.9477195,33.14944783,130.1871288,67.95
37.05,130.186965,33.149696,0.15,55.13,0,8,179,9,40.9430895,33.14946109,130.1871196,79.275
37.2,130.186965,33.149696,0.15,55.13,0,8,179,9,40.873638,33.1494743,130.1871104,90.6
37.35,130.186965,33.149696,0.15,55.13,1,7,178,9,40.8041895,33.1494878,130.1871011,83.805
37.5,130.186935,33.149734,0.15,55.13,4,7,176,9,40.6977005,33.14950129,130.1870918,86.07
37.65,130.186935,33.149734,0.15,55.13,6,8,175,9,40.50787075,33.14951474,130.1870824,72.48
37.8,130.186935,33.149768,0.15,55.13,6,8,175,9,40.1884,33.1495281,130.187073,72.48
37.95,130.186904,33.149768,0.15,55.25,2,10,173,9,40.2439615,33.14954131,130.1870637,74.745
38.1,130.186889,33.149784,0.15,55.25,-2,17,171,9,40.2439615,33.14955451,130.1870546,81.54
38.25,130.186874,33.149803,0.15,55.13,-7,15,176,9,40.21155075,33.14956773,130.1870455,95.13
38.4,130.186874,33.149803,0.15,55.13,-7,15,176,9,40.16988,33.149581,130.1870365,113.25
38.55,130.186874,33.149803,0.15,55.13,-9,14,181,9,40.0865415,33.14959419,130.1870275,120.045
38.7,130.186874,33.149803,0.15,57.13,-13,14,193,9,40.012461,33.14960733,130.1870184,122.31
38.85,130.186859,33.149848,0.15,57.13,-14,15,206,9,39.9476395,33.14962045,130.1870094,135.9
39,130.186859,33.149848,0.15,57.13,-14,15,206,9,39.892078,33.14963355,130.1870005,135.9
39.15,130.186859,33.149848,0.15,57.19,-13,15,212,9,39.54483025,33.14964664,130.1869917,133.635
39.3,130.186874,33.149875,0.15,57.19,-10,14,224,9,39.2531415,33.14965981,130.186983,86.07
39.45,130.186874,33.149875,0.15,57.19,-5,15,229,9,38.98923125,33.14967288,130.1869742,58.89
39.6,130.186874,33.149875,0.15,57.19,-5,15,229,9,38.725319,33.14968567,130.1869654,40.77
39.75,130.186874,33.149875,0.15,55.69,8,16,236,9,38.15582975,33.14969827,130.1869566,40.77
39.9,130.186889,33.149921,0.15,55.44,19,15,227,9,37.8456195,33.14971072,130.1869477,45.3
40.05,130.186889,33.149936,0.15,55.44,29,12,210,9,37.68819925,33.14972296,130.1869387,31.71
40.2,130.186889,33.149955,0.15,55.44,29,12,210,9,37.57708,33.14973495,130.1869298,27.18
40.35,130.186889,33.149955,0.15,54.57,33,9,202,9,37.16038075,33.149747,130.186921,20.385
40.5,130.186889,33.149971,0.15,54.57,38,5,187,9,36.8085005,33.14975879,130.1869122,18.12
40.65,130.186874,33.149993,0.15,53.94,36,11,176,9,36.54922,33.14977041,130.1869035,11.325
40.8,130.186874,33.150009,0.15,53.94,36,11,176,9,36.41032,33.14978193,130.1868949,9.06
40.95,130.186874,33.150009,0.15,53.94,34,14,175,9,35.93806,33.14979365,130.1868867,11.325
41.1,130.186859,33.15002,0.15,53.38,30,15,178,9,35.6973,33.14980522,130.1868788,18.12
41.25,130.186859,33.150035,0.15,53.38,26,16,182,9,35.50283975,33.14981665,130.186871,22.65
41.4,130.186859,33.150035,0.15,53.38,26,16,182,9,35.169479,33.14982797,130.1868634,27.18
41.55,130.186859,33.150035,0.15,53.38,24,17,183,9,34.697219,33.14983937,130.186856,36.24
41.7,130.186859,33.150035,0.15,54.07,21,21,186,9,34.345339,33.14985092,130.186849,54.36
41.85,130.186859,33.150035,0.15,54.07,20,21,188,9,34.0258695,33.14986255,130.1868422,49.83
42,130.186859,33.150035,0.15,54.32,18,21,191,9,33.650841,33.14987418,130.1868355,86.07
42.15,130.186859,33.150035,0.15,54.32,18,21,195,9,33.45638025,33.14988602,130.1868291,52.095
42.3,130.186859,33.150035,0.15,54.88,18,20,197,9,33.2897,33.14989781,130.1868232,77.01
42.45,130.186859,33.150035,0.15,54.88,19,21,202,9,33.04431,33.14990958,130.1868175,45.3
42.6,130.186859,33.150035,0.15,54.88,19,21,202,9,32.61372,33.14992135,130.1868119,40.77
42.75,130.186859,33.150035,0.15,54.88,20,20,205,9,32.65539075,33.14993299,130.1868066,56.625
42.9,130.186813,33.150127,0.15,54.88,21,17,211,9,32.5489005,33.14994452,130.1868013,54.36
43.05,130.186813,33.150127,0.15,54.13,24,14,215,9,32.32203,33.1499559,130.186796,77.01
43.2,130.186813,33.150127,0.15,54.13,24,14,215,9,32.00256,33.14996712,130.1867908,58.89
43.35,130.186813,33.150127,0.15,54.13,26,12,217,9,31.93311,33.14997817,130.1867856,47.565
43.5,130.186813,33.150127,0.15,53.69,28,12,216,9,31.6506795,33.14998917,130.1867805,108.72
43.65,130.186813,33.150127,0.15,53.69,34,14,216,9,31.3821395,33.15000023,130.1867755,65.685
43.8,130.186813,33.150196,0.15,53.69,34,14,211,9,31.354361,33.15001148,130.1867709,108.72
43.95,130.186813,33.150196,0.15,52.75,34,16,210,9,30.95155025,33.15002282,130.1867664,83.805
44.1,130.186813,33.150196,0.15,52.75,37,17,209,9,30.6598595,33.15003399,130.186762,104.19
44.25,130.186813,33.150196,0.15,52.75,38,18,208,9,30.4700295,33.15004502,130.1867576,101.925
44.4,130.186813,33.150196,0.15,50.88,40,18,208,9,30.372801,33.15005593,130.1867534,108.72
44.55,130.186813,33.150196,0.15,50.88,43,22,202,9,29.844981,33.15006627,130.1867493,106.455
44.7,130.186782,33.150264,0.15,49.38,43,23,201,9,29.42828,33.15007652,130.1867451,117.78
44.85,130.186782,33.150264,0.15,49.38,48,21,197,9,29.0578795,33.15008676,130.1867411,124.575
45,130.186782,33.150291,0.15,49.38,48,21,197,9,28.668961,33.15009705,130.1867373,131.37
45.15,130.186767,33.150291,0.15,46.94,48,16,188,9,28.377271,33.1501073,130.1867334,126.84
45.3,130.186767,33.150306,0.15,46.94,52,11,168,9,27.74296,33.15011719,130.1867296,135.9
45.45,130.186752,33.150318,0.15,46.63,54,1,152,9,27.057719,33.15012678,130.1867259,135.9
45.6,130.186752,33.150333,0.15,46.63,54,1,152,9,26.613239,33.15013613,130.1867221,135.9
45.75,130.186737,33.150333,0.15,46.63,54,-2,146,9,25.89095975,33.15014505,130.1867182,120.045
45.9,130.186737,33.150333,0.15,46.63,53,-10,132,9,24.96496,33.15015364,130.1867143,126.84
46.05,130.186706,33.15036,0.15,47.44,49,-15,122,9,24.03433025,33.15016197,130.1867105,131.37
46.2,130.186706,33.150371,0.15,47.44,49,-15,122,9,23.298161,33.15017007,130.1867067,113.25
46.35,130.186691,33.150371,0.15,48.38,48,-16,117,9,22.43698025,33.15017754,130.1867026,115.515
46.5,130.186676,33.150379,0.15,48.38,45,-16,110,9,21.8906395,33.15018469,130.1866986,131.37
46.65,130.186645,33.150382,0.15,49.38,42,-14,105,9,21.27021925,33.15019147,130.1866946,117.78
46.8,130.186645,33.15039,0.15,49.38,42,-14,105,9,20.1868,33.15019782,130.1866905,122.31
46.95,130.18663,33.15039,0.15,49.38,43,-13,103,9,20.53404925,33.15020413,130.1866862,151.755
47.1,130.186599,33.15039,0.15,50,45,-6,102,9,19.5293395,33.15021028,130.1866818,163.08
47.25,130.186569,33.15039,0.15,50,48,-2,99,9,18.71446025,33.15021622,130.1866771,165.345
47.4,130.186569,33.15039,0.15,50,48,-2,99,9,19.631201,33.15022192,130.1866723,167.61
47.55,130.186569,33.15039,0.15,50.32,49,0,97,9,18.77002025,33.15022714,130.1866674,163.08
47.7,130.186523,33.150382,0.15,50.32,52,5,95,9,18.44592,33.15023243,130.1866627,144.96
47.85,130.186523,33.150382,0.15,49.57,57,11,93,9,18.20979,33.15023753,130.1866578,124.575
48,130.186523,33.150367,0.15,49.57,57,11,93,9,17.61252,33.15024217,130.1866525,99.66
48.15,130.186492,33.150367,0.15,49.57,59,16,93,9,17.26527075,33.15024572,130.1866466,95.13
48.3,130.186462,33.150356,0.15,47.75,64,15,89,9,16.95506,33.1502492,130.1866406,90.6
48.45,130.186447,33.150337,0.15,47.75,67,5,81,9,16.76985925,33.15025258,130.1866344,81.54
48.6,130.186447,33.150337,0.15,47.75,67,5,81,9,16.79764,33.15025582,130.186628,58.89
48.75,130.186447,33.150337,0.15,47.32,68,-1,76,9,16.04758,33.15025822,130.1866214,47.565
48.9,130.186416,33.150302,0.15,47.32,67,-12,66,9,16.00128,33.15026028,130.1866149,40.77
49.05,130.186416,33.150302,0.15,47.32,67,-10,66,9,16.00591,33.15026203,130.1866084,40.77
49.2,130.186416,33.150249,0.15,47.32,67,-10,60,9,15.40864,33.15026345,130.1866016,36.24
49.35,130.186416,33.150249,0.15,47.32,67,-6,58,9,15.21418,33.1502643,130.1865952,29.445
49.5,130.186416,33.150226,0.15,47.13,67,4,56,9,14.75118,33.15026456,130.186589,31.71
49.65,130.186416,33.150226,0.15,47.13,66,7,52,9,14.07983,33.15026423,130.1865831,36.24
49.8,130.186416,33.150192,0.15,47.13,66,7,52,9,13.26032,33.1502633,130.1865778,45.3
49.95,130.186416,33.150192,0.15,47.25,64,15,44,9,13.26032,33.15026185,130.1865729,56.625
50.1,130.186416,33.150192,0.15,47.25,60,29,38,9,12.75102,33.15026011,130.1865685,72.48
50.25,130.186416,33.150192,0.15,47.25,59,35,40,9,12.37599,33.15025813,130.1865642,74.745
50.4,130.186416,33.150192,0.15,46.38,56,46,44,9,12.7788,33.15025595,130.1865598,58.89
50.55,130.186416,33.150192,0.15,46.38,55,53,41,9,12.83436,33.15025321,130.1865555,61.155
50.7,130.186416,33.150192,0.15,45.5,52,57,42,9,12.39914,33.15025032,130.1865519,72.48
50.85,130.186416,33.150192,0.15,45.5,51,63,46,9,11.95466,33.15024723,130.186549,74.745
51,130.186416,33.150146,0.15,45.5,51,63,46,9,11.98244,33.15024387,130.1865467,77.01
51.15,130.186447,33.150146,0.15,44.07,51,64,46,9,11.81576,33.15023999,130.1865453,74.745
51.3,130.186447,33.150138,0.15,44.07,55,57,45,9,12.01022,33.15023593,130.186544,72.48
51.45,130.186462,33.150131,0.15,43.25,61,45,29,9,12.20005,33.1502317,130.1865431,65.685
51.6,130.186462,33.150123,0.15,43.25,61,45,29,9,12.01948,33.15022733,130.1865429,58.89
51.75,130.186462,33.150123,0.15,43.25,64,39,18,9,11.56111,33.15022298,130.1865432,61.155
51.9,130.186477,33.150112,0.15,43.25,65,26,5,9,11.07496,33.1502186,130.1865438,72.48
52.05,130.186477,33.150104,0.15,43.19,65,15,-2,9,10.74623,33.15021431,130.1865449,90.6
52.2,130.186477,33.150096,0.15,43.19,65,15,-2,9,10.76012,33.15021025,130.1865465,90.6
52.35,130.186492,33.150096,0.15,42.88,64,9,-4,9,10.84346,33.15020656,130.1865486,101.925
52.5,130.186492,33.150096,0.15,42.88,60,-1,-8,9,11.13978,33.15020281,130.1865508,126.84
52.65,130.186508,33.150077,0.15,43.63,56,-10,-14,9,11.41758,33.15019914,130.1865533,147.225
52.8,130.186508,33.15007,0.15,43.63,56,-10,-14,9,11.44536,33.15019572,130.1865563,176.67
52.95,130.186523,33.15007,0.15,43.63,53,-13,-16,9,12.55656,33.1501917,130.1865601,183.465
53.1,130.186523,33.15007,0.15,43.63,47,-17,-19,9,13.40848,33.15018753,130.1865643,167.61
53.25,130.186523,33.15007,0.15,43.63,40,-22,-21,9,14.07057,33.15018319,130.1865687,167.61
53.4,130.186523,33.15007,0.15,43.63,40,-22,-21,9,14.61228,33.15017872,130.1865731,172.14
53.55,130.186523,33.15007,0.15,44.19,33,-25,-24,9,15.39012,33.15017375,130.1865774,181.2
53.7,130.186523,33.15007,0.15,44.19,31,-26,-26,9,16.0661,33.15016856,130.1865819,199.32
53.85,130.186523,33.15007,0.15,45.63,23,-28,-29,9,16.69578025,33.15016317,130.1865865,190.26
54,130.186523,33.15007,0.15,45.63,23,-28,-29,9,17.334721,33.15015762,130.1865912,231.03
54.15,130.186599,33.150039,0.15,45.63,14,-29,-33,9,18.22368025,33.1501518,130.1865961,219.705
54.3,130.186599,33.150039,0.15,51.63,10,-28,-35,9,18.85336,33.1501459,130.186601,185.73
54.45,130.18663,33.150035,0.15,51.63,2,-22,-37,9,19.38118,33.15013985,130.1866058,190.26
54.6,130.18663,33.150016,0.15,51.63,2,-22,-37,9,19.96456,33.15013358,130.1866108,167.61
54.75,130.186645,33.150016,0.15,54.32,-4,-20,-37,9,20.49238,33.15012698,130.186616,144.96
54.9,130.18666,33.150005,0.15,54.32,-11,-19,-36,9,21.1128,33.15012031,130.1866213,108.72
55.05,130.186691,33.14999,0.15,55.5,-17,-15,-33,9,21.74248,33.15011339,130.1866268,81.54
55.2,130.186691,33.149974,0.15,55.5,-17,-15,-33,9,22.29808,33.15010607,130.1866321,63.42
55.35,130.186721,33.149974,0.15,55.5,-22,-14,-32,9,22.81201,33.15009863,130.1866376,65.685
55.5,130.186737,33.149963,0.15,57.75,-28,-11,-25,9,23.2889005,33.15009098,130.186643,40.77
55.65,130.186767,33.149951,0.15,57.75,-34,-4,-17,9,23.798201,33.15008311,130.1866485,27.18
55.8,130.186767,33.14994,0.15,57.75,-34,-4,-17,9,24.409361,33.150075,130.1866541,27.18
55.95,130.186782,33.14994,0.15,57,-36,-1,-11,9,25.06219025,33.15006663,130.18666,33.975
56.1,130.186813,33.149925,0.15,57,-38,5,0,9,25.5483395,33.15005811,130.186666,36.24
56.25,130.186813,33.149902,0.15,56.75,-35,13,8,9,25.95577925,33.15004946,130.186672,54.36
56.4,130.186813,33.149887,0.15,56.75,-35,13,8,9,26.37248,33.15004068,130.1866783,77.01
56.55,130.186828,33.149887,0.15,56.75,-34,17,10,9,26.84473925,33.15003175,130.1866846,90.6
56.7,130.186828,33.149871,0.15,56.5,-25,20,9,9,27.3632995,33.15002269,130.1866911,63.42
56.85,130.186828,33.149871,0.15,56.5,-22,24,9,9,27.73833025,33.15001354,130.1866977,52.095
57,130.186828,33.149841,0.15,56.5,-22,24,9,9,27.780001,33.15000432,130.1867043,49.83
57.15,130.186843,33.149841,0.15,56.19,-18,27,5,9,29.15511025,33.14999462,130.1867112,40.77
57.3,130.186843,33.149829,0.15,56.19,-13,26,3,9,29.5394005,33.14998493,130.1867182,36.24
57.45,130.186843,33.149818,0.15,55,-9,20,1,9,29.67830075,33.14997524,130.1867252,38.505
57.6,130.186843,33.149818,0.15,55,-9,20,1,9,30.31724,33.14996557,130.1867323,45.3
57.75,130.186843,33.149818,0.15,55,-8,16,1,9,30.65060075,33.14995559,130.1867394,79.275
57.9,130.186859,33.149799,0.15,55.32,-6,10,2,9,30.9469205,33.14994551,130.1867463,99.66
58.05,130.186859,33.149799,0.15,55.32,-5,11,2,9,31.30806,33.14993537,130.1867531,72.48
58.2,130.186859,33.149799,0.15,55.32,-5,11,2,9,31.83588,33.14992522,130.1867602,58.89
58.35,130.186874,33.149776,0.15,55.19,-4,12,2,9,32.11368,33.14991477,130.1867673,63.42
58.5,130.186874,33.149776,0.15,55.19,-4,13,1,9,32.752621,33.14990416,130.1867747,58.89
58.65,130.186889,33.149749,0.15,54.75,-4,14,0,9,33.35915125,33.14989348,130.186782,72.48
58.8,130.186889,33.149749,0.15,54.75,-4,14,0,9,33.539719,33.14988283,130.1867892,86.07
58.95,130.186889,33.149749,0.15,54.75,-3,12,-1,9,33.9147505,33.14987208,130.1867967,86.07
59.1,130.186904,33.149723,0.15,54.5,-1,10,-1,9,34.262001,33.14986123,130.1868041,72.48
59.25,130.18692,33.149711,0.15,54.5,-1,6,-1,9,34.5953605,33.14985029,130.1868116,63.42
59.4,130.18692,33.149711,0.15,54.5,-1,6,-1,9,34.928719,33.14983927,130.1868192,99.66
59.55,130.18692,33.149711,0.15,54.5,-1,7,-1,9,34.30367125,33.14982819,130.1868265,140.43
59.7,130.18695,33.149677,0.15,54.88,1,8,-1,9,33.9379005,33.14981723,130.1868339,149.49
59.85,130.18695,33.149677,0.15,54.25,2,9,-1,9,33.724919,33.14980641,130.1868412,117.78
60,130.18695,33.149677,0.15,54.25,2,9,-1,9,33.558239,33.14979573,130.1868484,86.07
60.15,130.18695,33.149677,0.15,54.25,4,8,-1,9,32.947079,33.14978531,130.1868556,81.54
60.3,130.186965,33.149623,0.15,54.44,5,7,-1,9,32.8267005,33.14977486,130.186863,67.95
60.45,130.186965,33.149623,0.15,54.44,5,9,0,9,32.956342,33.1497643,130.1868705,67.95
60.6,130.186965,33.149589,0.15,54.44,5,9,0,9,33.095242,33.14975353,130.1868779,90.6
60.75,130.186981,33.149589,0.15,53.32,11,8,0,9,32.92856125,33.14974285,130.1868852,115.515
60.9,130.186981,33.149589,0.15,53.32,14,4,-1,9,32.8915215,33.14973218,130.1868926,108.72
61.05,130.187011,33.149551,0.15,55.82,14,2,-7,9,33.00264175,33.14972148,130.1869001,77.01
61.2,130.187011,33.149551,0.15,55.82,14,2,-7,9,33.280441,33.14971067,130.1869077,49.83
61.35,130.187011,33.149551,0.15,55.82,14,6,-10,9,33.266551,33.1496999,130.1869153,58.89
61.5,130.187026,33.149517,0.15,55.57,10,10,-11,9,33.41008,33.14968913,130.1869228,40.77
61.65,130.187042,33.149501,0.15,55.57,10,14,-10,9,33.558239,33.14967827,130.1869304,43.035
61.8,130.187042,33.149486,0.15,55.57,10,14,-10,9,33.558239,33.14966727,130.1869381,45.3
61.95,130.187057,33.149486,0.15,54.19,12,12,-10,9,33.7943705,33.14965613,130.1869457,79.275
62.1,130.187057,33.149471,0.15,54.19,11,8,-11,9,34.01198,33.14964488,130.1869533,77.01
62.25,130.187057,33.149471,0.15,54.19,10,7,-14,9,34.13698975,33.14963358,130.1869608,90.6
62.4,130.187057,33.149444,0.15,54.19,10,7,-14,9,34.095322,33.14962228,130.1869685,81.54
62.55,130.187103,33.149444,0.15,56.69,6,13,-16,9,34.12309975,33.1496111,130.1869759,72.48
62.7,130.187103,33.149444,0.15,56.5,5,13,-16,9,34.132359,33.14959988,130.1869835,81.54
62.85,130.187118,33.149417,0.15,56.5,3,17,-14,9,34.2619995,33.14958862,130.186991,88.335
63,130.187118,33.149417,0.15,56.5,3,17,-14,9,34.650921,33.14957733,130.1869986,86.07
63.15,130.187133,33.149402,0.15,55.94,3,16,-12,9,34.5953595,33.14956597,130.1870065,79.275
63.3,130.187133,33.149391,0.15,55.94,2,14,-12,9,34.7435185,33.14955461,130.1870144,72.48
63.45,130.187149,33.149375,0.15,55.94,2,9,-12,9,34.94260875,33.14954323,130.1870222,54.36
63.6,130.187149,33.149375,0.15,55.94,2,9,-12,9,35.039841,33.14953183,130.18703,58.89
63.75,130.187149,33.149375,0.15,55.94,1,8,-11,9,35.22041175,33.1495205,130.1870379,54.36
63.9,130.187179,33.149341,0.15,55.69,2,8,-11,9,35.3176405,33.14950909,130.1870458,49.83
64.05,130.187179,33.149326,0.15,55.69,0,7,-10,9,35.451909,33.14949766,130.1870537,58.89
64.2,130.187179,33.149326,0.15,55.69,0,7,-10,9,35.743599,33.14948625,130.1870615,86.07
64.35,130.187179,33.149326,0.15,55.88,0,6,-10,9,36.00751125,33.1494749,130.1870696,88.335
64.5,130.18721,33.149291,0.15,55.88,0,7,-9,9,36.336241,33.14946341,130.1870778,81.54
64.65,130.187225,33.149276,0.15,55.82,0,11,-9,9,36.59089025,33.14945179,130.187086,70.215
64.8,130.187225,33.149276,0.15,55.82,0,11,-9,9,36.632561,33.14944007,130.1870941,77.01
64.95,130.187225,33.149276,0.15,55.82,0,12,-8,9,36.5769995,33.14942818,130.1871021,79.275
65.1,130.18724,33.149242,0.15,55.44,0,14,-8,9,36.6233005,33.14941622,130.1871102,90.6
65.25,130.18724,33.149242,0.15,55.44,0,13,-8,9,36.77146175,33.14940416,130.1871184,97.395
65.4,130.18724,33.149242,0.15,55.44,0,13,-8,9,37.021481,33.149392,130.1871268,122.31
65.55,130.187271,33.149211,0.15,54.88,1,10,-8,9,37.035371,33.14938006,130.187135,122.31
65.7,130.187271,33.149211,0.15,54.88,1,8,-8,9,37.1048205,33.14936803,130.1871433,104.19
65.85,130.187286,33.149181,0.15,54.88,1,9,-7,9,37.1974205,33.14935595,130.1871515,77.01
66,130.187286,33.149181,0.15,54.88,1,9,-7,9,37.280762,33.14934387,130.1871596,63.42
66.15,130.187286,33.149181,0.15,54.88,2,9,-7,9,37.3502105,33.14933157,130.1871678,47.565
66.3,130.187316,33.149147,0.15,54.69,2,10,-6,9,37.56782,33.14931927,130.1871762,31.71
66.45,130.187316,33.149147,0.15,54.69,3,9,-6,9,37.75301975,33.14930702,130.1871847,38.505
66.6,130.187316,33.149112,0.15,54.69,3,9,-6,9,37.725239,33.14929488,130.1871932,27.18
66.75,130.187332,33.149112,0.15,55,5,6,-7,9,37.739129,33.14928271,130.1872019,29.445
66.9,130.187347,33.149097,0.15,55,6,6,-8,9,37.7808,33.14927059,130.1872106,36.24
67.05,130.187347,33.149097,0.15,56.07,4,9,-10,9,37.80395075,33.14925858,130.1872193,63.42
67.2,130.187347,33.149063,0.15,56.07,4,9,-10,9,37.76228,33.14924672,130.187228,81.54
67.35,130.187377,33.149063,0.15,56.07,3,12,-11,9,37.73449925,33.14923492,130.1872369,101.925
67.5,130.187377,33.149044,0.15,56.57,4,15,-10,9,37.6604195,33.14922308,130.1872456,117.78
67.65,130.187393,33.149028,0.15,56.57,3,19,-7,9,37.46133025,33.14921125,130.1872544,86.07
67.8,130.187393,33.149028,0.15,56.57,3,19,-7,9,37.058521,33.14919945,130.1872631,72.48
67.95,130.187393,33.149028,0.15,55.32,2,22,-7,9,37.336321,33.14918729,130.1872717,65.685
68.1,130.187408,33.149002,0.15,55.32,2,22,-6,9,37.4011405,33.14917526,130.1872803,63.42
68.25,130.187408,33.149002,0.15,55.32,3,21,-5,9,37.33169,33.14916336,130.187289,58.89
68.4,130.187408,33.148971,0.15,55.32,3,21,-5,9,37.20668,33.1491516,130.1872979,72.48
68.55,130.187438,33.148971,0.15,54.44,4,12,-6,9,37.2761285,33.14913996,130.1873064,61.155
68.7,130.187454,33.148956,0.15,54.25,4,7,-6,9,37.252979,33.14912809,130.187315,77.01
68.85,130.187454,33.148941,0.15,54.25,5,4,-7,9,37.19742,33.1491162,130.1873236,95.13
69,130.187454,33.148921,0.15,54.25,5,4,-7,9,37.16964,33.1491045,130.1873324,104.19
69.15,130.187469,33.148921,0.15,54.5,3,7,-7,9,37.21131075,33.14909259,130.1873411,81.54
69.3,130.187484,33.148902,0.15,54.5,2,8,-7,9,37.1974205,33.14908078,130.1873499,63.42
69.45,130.1875,33.148887,0.15,55.19,2,12,-7,9,37.1511195,33.14906904,130.1873586,45.3
69.6,130.1875,33.148872,0.15,55.19,2,12,-7,9,37.095558,33.14905735,130.1873672,31.71
69.75,130.187515,33.148872,0.15,55.19,2,13,-7,9,37.3039095,33.14904556,130.1873758,43.035
69.9,130.187515,33.148872,0.15,54.88,3,15,-8,9,37.37336,33.14903374,130.1873846,31.71
70.05,130.18753,33.148841,0.15,54.88,4,11,-8,9,37.33169,33.1490219,130.1873935,36.24
70.2,130.18753,33.148822,0.15,54.88,4,11,-8,9,37.20668,33.14901005,130.1874026,63.42
70.35,130.187545,33.148822,0.15,55.69,4,8,-10,9,37.59559925,33.14899798,130.1874117,86.07
70.5,130.187561,33.148807,0.15,55.69,3,9,-10,9,37.4566995,33.14898612,130.1874209,95.13
70.65,130.187561,33.148807,0.15,55.69,0,13,-11,9,37.18353,33.1489743,130.1874299,90.6
70.8,130.187561,33.148807,0.15,55.69,0,13,-11,9,37.16964,33.14896237,130.1874388,72.48
70.95,130.187561,33.148807,0.15,56.25,0,17,-10,9,37.18353,33.14895068,130.1874477,63.42
71.1,130.187591,33.148761,0.15,56,0,17,-10,9,37.1789,33.14893881,130.1874568,54.36
71.25,130.187606,33.148746,0.15,56,-1,19,-10,9,37.16500975,33.14892688,130.187466,45.3
71.4,130.187606,33.148746,0.15,56,-1,19,-10,9,37.151119,33.14891503,130.1874752,45.3
71.55,130.187622,33.148731,0.15,55.63,0,17,-10,9,37.0538905,33.14890331,130.1874842,40.77
71.7,130.187622,33.148731,0.15,55.63,2,15,-10,9,37.021481,33.14889168,130.187493,27.18
71.85,130.187637,33.148704,0.15,55.94,0,7,-9,9,37.01685075,33.14888015,130.1875018,40.77
72,130.187637,33.148689,0.15,55.94,0,7,-9,9,37.00296,33.14886868,130.1875106,40.77
72.15,130.187652,33.148689,0.15,55.94,-1,9,-8,9,36.9196215,33.14885736,130.1875195,61.155
72.3,130.187667,33.14867,0.15,55.75,-1,10,-8,9,36.9937,33.14884589,130.1875284,90.6
72.45,130.187667,33.14867,0.15,55.75,-2,12,-8,9,37.1140785,33.1488343,130.1875372,101.925
72.6,130.187667,33.148639,0.15,55.75,-2,12,-8,9,37.16964,33.1488226,130.1875459,90.6
72.75,130.187698,33.148639,0.15,56,-3,16,-9,9,36.87795,33.14881103,130.1875544,65.685
72.9,130.187698,33.148639,0.15,56,-3,17,-9,9,36.79924,33.14879955,130.1875629,67.95
73.05,130.187713,33.148609,0.15,55.82,-1,20,-8,9,36.82702025,33.14878814,130.1875715,86.07
73.2,130.187713,33.148597,0.15,55.82,-1,20,-8,9,36.854801,33.14877675,130.1875802,77.01
73.35,130.187728,33.148597,0.15,55.82,-3,17,-9,9,36.9103595,33.14876546,130.1875889,77.01
73.5,130.187728,33.148597,0.15,55.44,-2,16,-10,9,36.9659195,33.1487542,130.1875975,67.95
73.65,130.187744,33.148567,0.15,55.44,-2,7,-10,9,36.93813975,33.14874307,130.1876061,74.745
73.8,130.187744,33.148567,0.15,55.44,-2,7,-10,9,36.743679,33.14873217,130.1876149,77.01
73.95,130.187744,33.148567,0.15,55.44,-2,5,-9,9,36.92424975,33.14872114,130.1876238,99.66
74.1,130.187774,33.14854,0.15,55.5,-3,7,-8,9,36.9011,33.14871017,130.1876326,117.78
74.25,130.187774,33.14854,0.15,55.94,-4,7,-8,9,36.81776,33.14869914,130.1876412,81.54
74.4,130.187774,33.148509,0.15,55.94,-4,7,-8,9,36.81776,33.14868797,130.1876498,67.95
74.55,130.187805,33.148509,0.15,55.94,-5,9,-8,9,36.84554075,33.14867645,130.1876585,77.01
74.7,130.187805,33.148509,0.15,55.82,-5,9,-8,9,36.9937,33.14866476,130.1876671,67.95
74.85,130.187835,33.148479,0.15,55.82,-6,10,-8,9,36.989069,33.14865306,130.1876756,63.42
75,130.187835,33.148464,0.15,55.82,-6,10,-8,9,36.558479,33.14864153,130.1876839,63.42
75.15,130.187835,33.148464,0.15,55.57,-7,10,-7,9,36.544589,33.14862986,130.1876923,70.215
75.3,130.187835,33.148464,0.15,55.57,-8,8,-6,9,36.68812,33.14861823,130.1877008,49.83
75.45,130.187866,33.148429,0.15,55.82,-7,8,-4,9,36.789981,33.14860656,130.1877092,43.035
75.6,130.187866,33.148429,0.15,55.82,-7,8,-4,9,36.651081,33.14859473,130.1877175,45.3
75.75,130.187866,33.148429,0.15,55.82,-7,12,-3,9,36.67886175,33.14858285,130.1877258,40.77
75.9,130.187896,33.148395,0.15,56.94,-8,13,-4,9,36.734421,33.14857093,130.1877342,40.77
76.05,130.187896,33.148376,0.15,56.94,-10,16,-4,9,36.77145975,33.14855897,130.1877427,54.36
76.2,130.187896,33.148365,0.15,56.94,-10,16,-4,9,36.743679,33.14854693,130.187751,81.54
76.35,130.187927,33.148365,0.15,56.25,-10,15,-4,9,36.70201125,33.14853497,130.1877594,83.805
76.5,130.187927,33.148365,0.15,56.25,-9,14,-3,9,36.69738,33.14852294,130.1877677,81.54
76.65,130.187942,33.14833,0.15,55.69,-9,18,-2,9,36.69737875,33.14851085,130.187776,72.48
76.8,130.187942,33.14833,0.15,55.69,-9,18,-2,9,36.669601,33.14849872,130.1877843,81.54
76.95,130.187942,33.14833,0.15,55.69,-8,16,-3,9,36.69737875,33.1484866,130.1877926,77.01
77.1,130.187957,33.148303,0.15,55.69,-8,18,-3,9,36.706638,33.14847447,130.1878009,81.54
77.25,130.187973,33.148288,0.15,55.69,-6,17,-3,9,36.64644875,33.14846231,130.1878093,63.42
77.4,130.187973,33.148288,0.15,55.69,-6,17,-3,9,36.465881,33.14845015,130.1878176,49.83
77.55,130.187973,33.148288,0.15,55.13,-6,11,-3,9,36.6603395,33.14843823,130.1878262,58.89
77.7,130.187988,33.148262,0.15,55.13,-6,9,-4,9,36.7714595,33.14842629,130.1878347,45.3
77.85,130.187988,33.148262,0.15,55.13,-6,7,-4,9,36.81776,33.14841438,130.1878432,61.155
78,130.187988,33.148231,0.15,55.13,-6,7,-4,9,36.81776,33.14840253,130.1878518,72.48
78.15,130.188003,33.148231,0.15,55.38,-5,6,-5,9,36.81776,33.14839057,130.1878603,65.685
78.3,130.188003,33.148231,0.15,55.19,-5,7,-5,9,36.79924,33.14837853,130.1878688,72.48
78.45,130.188018,33.148197,0.15,55.19,-6,7,-6,9,36.7621995,33.1483665,130.1878772,86.07
78.6,130.188018,33.148197,0.15,55.19,-6,7,-6,9,36.706638,33.14835455,130.1878854,86.07
78.75,130.188018,33.148197,0.15,55.07,-6,9,-6,9,36.387171,33.14834255,130.1878935,95.13
78.9,130.188049,33.148166,0.15,55.07,-7,9,-7,9,36.5029205,33.14833048,130.1879015,99.66
79.05,130.188049,33.148166,0.15,55.32,-6,11,-8,9,36.63718925,33.14831838,130.1879095,90.6
79.2,130.188049,33.148136,0.15,55.32,-6,11,-8,9,36.37328,33.14830627,130.1879174,81.54
79.35,130.188064,33.148136,0.15,55.32,-7,8,-8,9,36.66496925,33.14829417,130.1879253,81.54
79.5,130.188064,33.148136,0.15,55,-7,8,-8,9,36.30846,33.14828213,130.1879331,63.42
79.65,130.188095,33.148109,0.15,55,-6,6,-9,9,35.9751005,33.14827008,130.1879409,72.48
79.8,130.188095,33.148109,0.15,55,-6,6,-9,9,36.336239,33.14825792,130.1879486,72.48
79.95,130.188095,33.148109,0.15,55.38,-6,4,-9,9,36.336239,33.14824582,130.1879564,65.685
80.1,130.18811,33.148071,0.15,55.38,-5,4,-9,9,36.549219,33.14823371,130.1879642,54.36
80.25,130.188125,33.148056,0.15,56,-5,4,-9,9,36.655709,33.14822162,130.187972,45.3
80.4,130.188125,33.148056,0.15,56,-5,4,-9,9,36.336239,33.14820958,130.1879799,36.24
80.55,130.188125,33.148056,0.15,56,-4,7,-8,9,36.350129,33.14819763,130.1879879,40.77
80.7,130.188156,33.148017,0.15,56.07,-4,8,-8,9,36.5214405,33.14818565,130.1879958,31.71
80.85,130.188156,33.148017,0.15,56.07,-5,12,-8,9,36.70664125,33.14817369,130.1880036,58.89
81,130.188156,33.147983,0.15,56.07,-5,12,-8,9,36.762199,33.1481618,130.1880115,95.13
81.15,130.188171,33.147983,0.15,56.75,-5,14,-8,9,36.8177605,33.14814992,130.1880195,115.515
81.3,130.188171,33.147983,0.15,56.75,-5,15,-8,9,36.98444,33.1481379,130.1880274,99.66
81.45,130.188201,33.147949,0.15,56.32,-5,17,-7,9,37.1048195,33.14812573,130.1880354,63.42
81.6,130.188201,33.147937,0.15,56.32,-5,17,-7,9,37.021481,33.14811342,130.1880435,67.95
81.75,130.188217,33.147937,0.15,56.32,-7,18,-7,9,37.035371,33.14810118,130.1880514,74.745
81.9,130.188217,33.147937,0.15,56.5,-8,19,-8,9,37.07704,33.14808893,130.1880594,144.96
82.05,130.188232,33.147903,0.15,56.5,-10,20,-8,9,37.123339,33.14807665,130.1880673,131.37
82.2,130.188232,33.147888,0.15,56.5,-10,20,-8,9,37.151119,33.1480643,130.188075,122.31
82.35,130.188262,33.147888,0.15,55.82,-10,12,-9,9,37.17889975,33.14805203,130.1880828,110.985
82.5,130.188262,33.147876,0.15,55.82,-10,8,-9,9,37.2066805,33.14803987,130.1880906,99.66
82.65,130.188262,33.147876,0.15,56.38,-12,9,-8,9,37.225201,33.14802774,130.1880985,74.745
82.8,130.188262,33.147842,0.15,56.38,-12,9,-8,9,37.225201,33.14801557,130.1881062,49.83
82.95,130.188293,33.147842,0.15,56.38,-13,9,-9,9,37.21131025,33.1480035,130.1881139,56.625
83.1,130.188293,33.147842,0.15,56.38,-13,11,-9,9,37.2159405,33.14799138,130.1881219,49.83
83.25,130.188293,33.147842,0.15,55.63,-16,10,-9,9,37.327061,33.14797913,130.1881299,72.48
83.4,130.188293,33.147842,0.15,55.63,-15,6,-5,9,37.632641,33.14796668,130.1881378,72.48
83.55,130.188293,33.147842,0.15,55.94,-16,6,-3,9,37.22982875,33.14795463,130.1881457,70.215
83.7,130.188339,33.147773,0.15,55.94,-17,5,-2,9,37.354839,33.14794255,130.1881539,77.01
83.85,130.188354,33.14775,0.15,56.44,-15,9,0,9,37.6372695,33.14793042,130.1881622,70.215
84,130.188354,33.147735,0.15,56.44,-15,9,0,9,37.706718,33.14791822,130.1881705,72.48
84.15,130.188369,33.147735,0.15,56.44,-14,15,0,9,37.37336025,33.14790614,130.1881787,72.48
84.3,130.188369,33.147716,0.15,56.63,-14,17,0,9,37.30854,33.14789408,130.188187,77.01
84.45,130.188369,33.147716,0.15,56.63,-15,19,-1,9,37.36872925,33.14788203,130.1881953,83.805
84.6,130.188369,33.147689,0.15,56.63,-15,19,-1,9,37.4104,33.14786998,130.1882037,90.6
84.75,130.188385,33.147689,0.15,55.57,-14,18,0,9,37.36872925,33.14785807,130.188212,72.48
84.9,130.1884,33.14767,0.15,55.57,-13,17,1,9,37.354839,33.14784611,130.1882202,99.66
85.05,130.1884,33.14767,0.15,55.32,-12,14,2,9,37.3826195,33.14783412,130.1882284,115.515
85.2,130.1884,33.147636,0.15,55.32,-12,14,2,9,37.465961,33.14782212,130.1882365,154.02
85.35,130.188415,33.147636,0.15,55.32,-8,12,2,9,37.3548395,33.14781012,130.1882445,117.78
85.5,130.188415,33.147636,0.15,55.32,-7,12,1,9,37.16964,33.14779806,130.1882526,67.95
85.65,130.18843,33.147605,0.15,54.63,-5,7,0,9,37.06778075,33.14778594,130.1882606,70.215
85.8,130.18843,33.147605,0.15,54.63,-5,7,0,9,37.20668,33.14777377,130.1882687,58.89
85.95,130.18843,33.147605,0.15,54.63,-4,6,0,9,37.34558,33.14776179,130.1882769,65.685
86.1,130.188446,33.147571,0.15,54.82,-3,7,-1,9,37.2622395,33.14774987,130.188285,72.48
86.25,130.188446,33.147571,0.15,54.25,-1,5,-1,9,37.26686975,33.14773797,130.1882932,61.155
86.4,130.188446,33.147537,0.15,54.25,-1,5,-1,9,37.669682,33.14772603,130.1883016,67.95
86.55,130.188476,33.147537,0.15,54.25,0,0,-2,9,37.21131125,33.14771401,130.1883099,58.89
86.7,130.188476,33.147518,0.15,56.07,0,2,-3,9,37.3178005,33.14770201,130.1883182,49.83
86.85,130.188476,33.147518,0.15,56.07,-1,8,-5,9,37.51225975,33.14769005,130.1883263,63.42
87,130.188476,33.147487,0.15,56.07,-1,8,-5,9,37.317799,33.14767817,130.1883345,72.48
87.15,130.188507,33.147487,0.15,55.69,-3,11,-4,9,37.2483505,33.14766627,130.1883425,49.83
87.3,130.188522,33.147472,0.15,55.69,-4,13,-4,9,37.38262,33.14765432,130.1883507,77.01
87.45,130.188522,33.147457,0.15,55.82,-4,14,-3,9,37.3640995,33.14764237,130.1883589,65.685
87.6,130.188522,33.147441,0.15,55.82,-4,14,-3,9,36.836281,33.14763048,130.1883674,95.13
87.75,130.188537,33.147441,0.15,55.82,-4,14,-4,9,36.87795175,33.14761866,130.1883756,92.865
87.9,130.188537,33.147441,0.15,55.82,-5,14,-4,9,37.1048205,33.14760688,130.188384,86.07
88.05,130.188552,33.147411,0.15,55.63,-7,14,-7,9,37.30853975,33.1475951,130.1883924,95.13
88.2,130.188552,33.147411,0.15,55.63,-7,14,-7,9,37.280762,33.14758327,130.1884008,81.54
88.35,130.188568,33.147396,0.15,55.82,-7,12,-8,9,36.96129125,33.14757139,130.1884093,74.745
88.5,130.188583,33.14738,0.15,55.82,-7,13,-8,9,36.854801,33.14755944,130.1884178,63.42
88.65,130.188598,33.147369,0.15,55.38,-9,12,-7,9,36.7807205,33.14754748,130.1884264,67.95
88.8,130.188598,33.147369,0.15,55.38,-9,12,-7,9,36.558479,33.14753558,130.188435,72.48
88.95,130.188598,33.147369,0.15,55.38,-9,8,-7,9,36.60014975,33.14752366,130.1884435,88.335
89.1,130.188613,33.147335,0.15,55,-11,6,-6,9,36.49366,33.14751166,130.1884521,104.19
89.25,130.188629,33.147323,0.15,55,-12,7,-5,9,36.36864975,33.1474996,130.1884608,135.9
89.4,130.188629,33.147323,0.15,55,-12,7,-5,9,36.354759,33.14748748,130.1884695,81.54
89.55,130.188629,33.147304,0.15,55.19,-13,8,-4,9,36.38253975,33.14747568,130.1884782,83.805
89.7,130.188644,33.147289,0.15,55.19,-14,10,-1,9,36.1325205,33.14746413,130.1884866,77.01
89.85,130.188644,33.14727,0.15,54,-14,11,0,9,35.88250025,33.14745268,130.1884948,101.925
90,130.188644,33.14727,0.15,54,-14,11,0,9,35.910278,33.14744123,130.188503,126.84
90.15,130.188659,33.147254,0.15,54,-15,9,2,9,35.78526875,33.14742942,130.188511,101.925
90.3,130.188659,33.147254,0.15,54,-16,8,4,9,35.9102805,33.14741744,130.1885188,104.19
90.45,130.188659,33.147224,0.15,53.44,-16,7,4,9,35.882502,33.14740542,130.1885266,99.66
90.6,130.188659,33.147224,0.15,53.44,-16,7,12,9,35.299122,33.14739347,130.1885346,90.6
90.75,130.188659,33.147224,0.15,54.5,-15,7,22,9,35.78526975,33.14738175,130.188543,79.275
90.9,130.188659,33.147224,0.15,54.5,-11,12,28,9,35.660259,33.14737041,130.188551,54.36
91.05,130.188659,33.147171,0.15,54.19,-9,12,29,9,35.123179,33.14735916,130.1885589,61.155
91.2,130.188659,33.147171,0.15,54.19,-9,12,29,9,34.373119,33.14734773,130.1885668,40.77
91.35,130.188659,33.147151,0.15,54.19,-4,9,31,9,34.4286805,33.14733637,130.1885743,22.65
91.5,130.188659,33.147151,0.15,54.07,4,10,33,9,34.4379405,33.14732495,130.1885816,18.12
91.65,130.188659,33.147117,0.15,54.07,9,11,33,9,34.42405,33.14731353,130.1885884,15.855
91.8,130.188659,33.147117,0.15,54.07,9,11,33,9,34.41016,33.14730215,130.1885949,27.18
91.95,130.188644,33.147094,0.15,54.19,14,15,25,9,33.53509075,33.14729085,130.1886008,22.65
92.1,130.188644,33.147079,0.15,54.19,19,18,15,9,33.09524,33.14727943,130.1886064,22.65
92.25,130.188659,33.14706,0.15,54.32,20,20,11,9,32.900779,33.14726788,130.1886117,15.855
92.4,130.188659,33.14706,0.15,54.32,20,20,11,9,32.761879,33.14725615,130.1886168,13.59
92.55,130.188659,33.147048,0.15,54.32,20,24,6,9,32.109049,33.14724466,130.1886215,27.18
92.7,130.188659,33.147048,0.15,53.38,19,30,5,9,31.585859,33.14723341,130.1886263,40.77
92.85,130.188659,33.147048,0.15,53.38,19,29,8,9,31.0997095,33.14722224,130.1886311,77.01
93,130.188659,33.147048,0.15,53.38,19,29,8,9,30.558001,33.147211,130.1886356,86.07
93.15,130.188659,33.147048,0.15,53.07,20,28,12,9,30.044071,33.14719991,130.18864,113.25
93.3,130.188659,33.147048,0.15,53.07,22,37,10,9,29.724601,33.14718911,130.1886442,131.37
93.45,130.188659,33.146972,0.15,52,24,40,9,9,29.4051305,33.1471786,130.1886483,156.285
93.6,130.188659,33.146972,0.15,52,24,40,9,9,28.891199,33.1471684,130.1886522,167.61
93.75,130.188659,33.146961,0.15,52,24,42,13,9,28.64117975,33.14715824,130.1886562,167.61
93.9,130.188659,33.146949,0.15,50.69,29,44,15,9,28.26152,33.14714819,130.1886603,149.49
94.05,130.188659,33.146949,0.15,50.69,32,44,13,9,27.78463,33.14713831,130.1886645,117.78
94.2,130.188659,33.146949,0.15,50.69,32,44,13,9,27.24292,33.14712865,130.1886686,90.6
94.35,130.188659,33.146949,0.15,48.25,42,41,3,9,26.93734,33.14711901,130.1886726,106.455
94.5,130.188659,33.146949,0.15,48.25,54,26,-16,9,26.6224995,33.14710954,130.1886767,95.13
94.65,130.188674,33.146903,0.15,47.63,57,13,-29,9,26.19190925,33.14710033,130.1886808,92.865
94.8,130.188674,33.146903,0.15,47.63,57,13,-29,9,25.53908,33.14709145,130.1886852,86.07
94.95,130.188674,33.146903,0.15,47.63,56,-9,-51,9,24.92791925,33.1470829,130.1886898,77.01
95.1,130.188674,33.146903,0.15,47.63,54,-16,-59,9,24.46492,33.14707456,130.1886945,77.01
95.25,130.188674,33.146903,0.15,50.57,51,-19,-59,9,24.09915075,33.14706618,130.1886994,74.745
95.4,130.188674,33.146903,0.15,50.57,51,-19,-71,9,23.77968,33.14705752,130.1887044,77.01
95.55,130.188674,33.146903,0.15,50.57,51,-11,-74,9,23.39076,33.1470492,130.1887094,74.745
95.7,130.188751,33.146854,0.15,51.82,51,-7,-74,8,22.9185,33.14704113,130.1887143,81.54
95.85,130.188766,33.14685,0.15,51.5,51,-3,-74,9,22.38605025,33.14703336,130.188719,97.395
96,130.188766,33.14685,0.15,51.5,51,-3,-74,9,21.816561,33.14702593,130.1887239,104.19
96.15,130.188781,33.14685,0.15,51.5,50,1,-73,9,20.80259025,33.14701908,130.1887288,129.105
96.3,130.188812,33.14685,0.15,51,50,7,-73,9,20.12198,33.14701244,130.1887339,140.43
96.45,130.188812,33.14685,0.15,51,51,10,-73,9,19.50619,33.1470062,130.1887392,149.49
96.6,130.188812,33.14685,0.15,51,51,10,-73,9,18.68668,33.14700055,130.1887445,144.96
96.75,130.188812,33.14685,0.15,51.19,51,16,-73,9,18.93670075,33.14699498,130.1887506,144.96
96.9,130.188812,33.14685,0.15,51.19,52,19,-75,9,18.2051605,33.14698986,130.1887565,140.43
97.05,130.188873,33.146858,0.15,50,53,19,-75,9,17.2236,33.14698523,130.1887622,124.575
97.2,130.188873,33.146869,0.15,50,53,19,-76,9,16.72356,33.14698113,130.1887678,108.72
97.35,130.188888,33.146869,0.15,50,56,17,-81,9,16.37630925,33.14697768,130.1887737,90.6
97.5,130.188903,33.146873,0.15,49.13,59,10,-89,9,16.2235195,33.1469746,130.1887796,63.42
97.65,130.188919,33.146884,0.15,49.13,61,4,-94,9,15.742,33.14697193,130.1887853,67.95
97.8,130.188919,33.146884,0.15,49.13,61,4,-94,9,14.40856,33.14696972,130.1887904,67.95
97.95,130.188934,33.146896,0.15,49.63,61,-8,-105,9,14.08909,33.14696825,130.1887961,70.215
98.1,130.188949,33.146915,0.15,49.63,59,-19,-117,9,13.43626,33.14696723,130.1888013,63.42
98.25,130.188964,33.14693,0.15,51.13,57,-22,-122,9,12.67231,33.14696646,130.188806,74.745
98.4,130.188964,33.14693,0.15,51.13,57,-22,-122,9,12.01948,33.14696575,130.1888105,81.54
98.55,130.188964,33.146953,0.15,51.13,54,-20,-132,9,11.25553,33.14696521,130.1888146,79.275
98.7,130.188964,33.146968,0.15,52,52,-12,-139,9,10.8342,33.14696551,130.1888189,90.6
98.85,130.188964,33.146984,0.15,52,51,-6,-141,9,10.39435,33.1469664,130.188823,90.6
99,130.188964,33.146984,0.15,52,51,-6,-141,9,9.57484,33.14696765,130.1888267,90.6
99.15,130.188964,33.146999,0.15,51.82,50,-1,-143,9,9.58873,33.14696916,130.18883,86.07
99.3,130.188964,33.14701,0.15,51.82,48,4,-147,9,9.56558,33.14697091,130.1888329,99.66
99.45,130.188964,33.147022,0.15,51.82,47,6,-149,9,9.51928,33.1469729,130.1888353,101.925
99.6,130.188964,33.147041,0.15,51.82,47,6,-149,9,9.46372,33.14697515,130.1888375,104.19
99.75,130.188949,33.147041,0.15,51.82,46,8,-153,9,9.47761,33.14697773,130.1888391,90.6
99.9,130.188949,33.147052,0.15,51.38,46,11,-156,9,10.28786,33.14698111,130.1888406,58.89
100.05,130.188949,33.147068,0.15,51.38,47,11,-157,9,0.24076,33.14695015,130.1888566,33.975
100.2,130.188949,33.147068,0.15,51.38,47,11,-157,9,11.575,33.14698922,130.1888425,22.65
100.35,130.188934,33.147083,0.15,50.19,47,9,-161,9,11.83891,33.14699363,130.1888426,22.65
100.5,130.188934,33.147102,0.15,50.19,47,7,-169,9,11.68612,33.14699798,130.1888425,22.65
