time,long,lat,dt,H,Roll,pitch,yaw,S,truckSpeed,truck_Lat,truck_long,Tension
0,130.188934,33.146934,0.15,69.44,3,-53,174,9,0,33.147,130.1888,0
0.15,130.188934,33.146934,0.15,69.44,3,-53,174,9,0.01852,33.14707243,130.1888396,-2.265
0.3,130.188934,33.146934,0.15,69.44,3,-53,174,9,0.01852,33.14707243,130.1888396,-4.53
0.45,130.188934,33.146934,0.15,69.44,3,-53,174,9,0.06482,33.14707246,130.1888396,-4.53
0.6,130.188934,33.146934,0.15,69.44,3,-53,102,9,0.01852,33.14707247,130.1888396,-4.53
0.75,130.188934,33.146934,0.15,69.94,0,-58,167,8,0.01852,33.14707249,130.1888396,0
0.9,130.188934,33.146934,0.15,69.94,0,-58,167,8,0,33.14707247,130.1888396,9.06
1.05,130.188934,33.146934,0.15,69.94,0,-58,167,8,0.01852,33.14707244,130.1888395,13.59
1.2,130.188934,33.146934,0.15,69.94,0,-58,167,8,0,33.14707237,130.1888393,13.59
1.35,130.188934,33.146934,0.15,69.94,0,-58,167,8,0.01852,33.14707228,130.1888392,2.265
1.5,130.188934,33.146934,0.15,69.94,0,-58,167,8,0.20372,33.14707227,130.1888391,-4.53
1.65,130.188934,33.146934,0.15,69.94,0,-58,167,8,0.14816,33.14707227,130.1888391,-4.53
1.8,130.188934,33.146934,0.15,69.94,0,-58,167,8,0.07408,33.14707233,130.1888391,-4.53
1.95,130.188934,33.146934,0.15,69.94,0,-58,167,8,0.0463,33.14707249,130.1888391,-2.265
2.1,130.188934,33.146934,0.15,69.94,0,-58,167,8,0.01852,33.14707258,130.1888389,4.53
2.25,130.188934,33.146934,0.15,70.25,1,-42,164,9,0.06482,33.14707269,130.1888389,4.53
2.4,130.188934,33.146934,0.15,70.25,1,-45,164,9,0,33.14707275,130.1888388,4.53
2.55,130.188934,33.146934,0.15,70.25,1,-45,164,9,0.06482,33.14707278,130.1888387,4.53
2.7,130.188934,33.146934,0.15,70.25,1,-45,164,9,0.11112,33.14707285,130.1888386,0
2.85,130.188934,33.146934,0.15,70.25,1,-45,164,9,0.24076,33.14707298,130.1888384,0
3,130.188934,33.146934,0.15,70.25,1,-45,164,9,0.33336,33.14707313,130.1888382,0
3.15,130.188934,33.146934,0.15,70.25,1,-45,164,9,0.4167,33.14707335,130.188838,4.53
3.3,130.188934,33.146934,0.15,70.25,1,-45,164,9,1.98164,33.14707358,130.1888379,4.53
3.45,130.188934,33.146934,0.15,70.25,1,-45,164,9,3.35212,33.14707409,130.1888374,6.795
3.6,130.188934,33.146934,0.15,70.25,1,-45,164,9,4.88928,33.14707505,130.1888365,4.53
3.75,130.188934,33.146934,0.15,70.25,1,-45,162,9,5.93566,33.14707693,130.1888351,6.795
3.9,130.188858,33.147045,0.15,71.82,10,-46,163,9,6.90796,33.14707915,130.1888335,13.59
4.05,130.188858,33.147045,0.15,71.82,10,-46,163,9,7.49134,33.14708166,130.1888318,79.275
4.2,130.188858,33.147045,0.15,71.82,10,-46,163,9,8.57476,33.1470845,130.1888299,77.01
4.35,130.188858,33.147045,0.15,71.82,10,-46,163,9,9.32482,33.14708758,130.1888278,124.575
4.5,130.188858,33.147045,0.15,71.82,10,-46,163,9,10.186,33.14709087,130.1888256,154.02
4.65,130.188858,33.147045,0.15,71.82,10,-46,163,9,10.90828,33.1470944,130.1888231,197.055
4.8,130.188858,33.147045,0.15,71.82,10,-46,163,9,11.9454,33.14709813,130.1888204,258.21
4.95,130.188858,33.147045,0.15,71.82,10,-46,163,9,12.95474,33.14710217,130.1888174,269.535
5.1,130.188858,33.147045,0.15,71.82,10,-46,163,9,13.37144,33.14710638,130.1888142,258.21
5.25,130.188858,33.147045,0.15,71.82,10,-46,163,9,14.24188,33.14711073,130.1888107,203.85
5.4,130.188858,33.147075,0.15,74.25,13,-45,171,9,14.96416,33.1471152,130.1888071,176.67
5.55,130.188858,33.147075,0.15,84.25,15,-45,171,9,15.70496,33.14711986,130.1888031,203.85
5.7,130.188858,33.147075,0.15,84.25,15,-45,171,9,16.4828,33.14712472,130.1887991,226.5
5.85,130.188858,33.147075,0.15,84.25,15,-45,171,9,17.4273195,33.14712979,130.1887946,221.97
6,130.188858,33.147075,0.15,84.25,15,-45,171,9,18.57556,33.14713525,130.1887899,154.02
6.15,130.188858,33.147075,0.15,84.25,15,-45,171,9,19.43674,33.14714107,130.1887849,144.96
6.3,130.188858,33.147075,0.15,84.25,15,-45,171,9,20.149759,33.14714712,130.1887798,235.56
6.45,130.188858,33.147075,0.15,84.25,15,-45,171,9,21.17762,33.14715376,130.1887746,169.875
6.6,130.188858,33.147075,0.15,84.25,15,-45,171,9,22.29808,33.14716065,130.188769,99.66
6.75,130.188858,33.147075,0.15,84.25,15,-45,171,9,22.53884,33.14716761,130.1887633,52.095
6.9,130.188858,33.147075,0.15,84.25,15,-45,171,9,23.8908,33.14717503,130.1887575,40.77
7.05,130.188781,33.147247,0.15,80.57,10,-7,162,9,24.1871195,33.14718267,130.1887514,36.24
7.2,130.188781,33.147247,0.15,85.44,10,-7,162,9,25.224239,33.14719085,130.1887455,22.65
7.35,130.188781,33.147247,0.15,85.44,10,-7,162,9,25.26128,33.14719911,130.1887393,20.385
7.5,130.188781,33.147247,0.15,85.44,10,-7,162,9,25.724279,33.14720733,130.188733,13.59
7.65,130.188781,33.147247,0.15,85.44,10,-7,162,9,26.3446995,33.14721595,130.1887266,2.265
7.8,130.188781,33.147247,0.15,85.44,10,-7,162,9,26.87252,33.14722497,130.1887202,4.53
7.95,130.188781,33.147247,0.15,85.44,10,-7,162,9,27.11328,33.1472343,130.1887137,0
8.1,130.188781,33.147247,0.15,85.44,10,-7,162,9,27.72444,33.14724372,130.188707,0
8.25,130.188781,33.147247,0.15,85.44,10,-7,162,9,28.17818,33.14725319,130.1886999,4.53
8.4,130.188781,33.147247,0.15,85.44,10,-7,162,9,28.594879,33.1472629,130.1886927,18.12
8.55,130.188766,33.147342,0.15,83.63,16,0,162,9,29.1134395,33.14727272,130.1886856,22.65
8.7,130.188629,33.147342,0.15,86.57,16,19,155,9,29.61348,33.14728287,130.1886784,22.65
8.85,130.188629,33.147342,0.15,86.57,16,19,155,9,30.0857405,33.14729319,130.188671,29.445
9,130.188629,33.147342,0.15,86.57,16,19,155,9,30.6506,33.14730367,130.1886634,22.65
9.15,130.188629,33.147342,0.15,86.57,16,19,155,9,31.3173195,33.14731436,130.1886556,15.855
9.3,130.188629,33.147342,0.15,86.57,16,19,155,9,31.81736,33.14732495,130.1886476,22.65
9.45,130.188629,33.147342,0.15,86.57,16,19,155,9,32.2618405,33.14733578,130.1886396,31.71
9.6,130.188629,33.147342,0.15,86.57,16,19,155,9,32.706322,33.14734685,130.1886317,36.24
9.75,130.188629,33.147342,0.15,86.57,16,19,155,9,33.1507985,33.14735803,130.1886237,56.625
9.9,130.188629,33.147342,0.15,86.57,16,19,155,9,33.724918,33.14736932,130.1886158,63.42
10.05,130.188629,33.147342,0.15,86.57,16,19,155,9,33.7064,33.14738067,130.1886082,86.07
10.2,130.188522,33.147399,0.15,84.44,-21,0,107,9,33.6138,33.14739203,130.1886007,126.84
10.35,130.188522,33.147399,0.15,84.44,-21,0,107,9,33.29896,33.14740342,130.1885935,190.26
10.5,130.188522,33.147399,0.15,84.44,-21,0,107,9,32.076641,33.14741458,130.1885866,226.5
10.65,130.188522,33.147399,0.15,84.44,-21,0,107,9,31.9192205,33.14742529,130.1885797,178.935
10.8,130.188522,33.147399,0.15,84.44,-21,0,107,9,32.076641,33.14743598,130.1885726,253.68
10.95,130.188522,33.147399,0.15,84.44,-21,0,107,9,30.8543195,33.14744668,130.1885656,258.21
11.1,130.188522,33.147399,0.15,84.44,-21,0,107,9,30.798759,33.14745712,130.1885588,208.38
11.25,130.188522,33.147399,0.15,84.44,-21,0,107,9,30.8913605,33.14746751,130.188552,206.115
11.4,130.188522,33.147399,0.15,84.44,-21,0,107,9,30.965441,33.14747795,130.1885452,126.84
11.55,130.188522,33.147399,0.15,84.44,-21,0,107,9,32.61372,33.14748878,130.1885382,122.31
11.7,130.188522,33.147422,0.15,84.44,-24,-4,156,9,32.576679,33.14749988,130.1885311,113.25
11.85,130.188552,33.147567,0.15,84.63,33,-12,196,9,33.178579,33.14751105,130.188524,95.13
12,130.188552,33.147567,0.15,84.63,33,-12,196,9,33.484161,33.14752223,130.1885167,104.19
12.15,130.188552,33.147567,0.15,84.63,33,-12,196,9,34.2897795,33.14753362,130.1885092,88.335
12.3,130.188552,33.147567,0.15,84.63,33,-12,196,9,34.558319,33.14754512,130.1885015,104.19
12.45,130.188552,33.147567,0.15,84.63,33,-12,196,9,35.160221,33.14755677,130.1884937,106.455
12.6,130.188552,33.147567,0.15,84.63,33,-12,196,9,35.688042,33.14756862,130.1884858,117.78
12.75,130.188552,33.147567,0.15,84.63,33,-12,196,9,35.9288005,33.14758047,130.1884779,187.995
12.9,130.188552,33.147567,0.15,84.63,33,-12,196,9,36.521439,33.14759247,130.1884698,240.09
13.05,130.188552,33.147567,0.15,84.63,33,-12,196,9,36.1788195,33.14760442,130.1884618,276.33
13.2,130.188552,33.147567,0.15,84.63,33,-12,196,9,35.98436,33.1476162,130.1884538,276.33
13.35,130.188385,33.14767,0.15,83.94,18,5,172,9,36.4010605,33.14762774,130.1884454,224.235
13.5,130.188385,33.14767,0.15,86.88,18,5,172,9,36.058441,33.14763927,130.1884371,163.08
13.65,130.188385,33.14767,0.15,86.88,18,5,172,9,36.1788195,33.14765075,130.1884287,129.105
13.8,130.188385,33.14767,0.15,86.88,18,5,172,9,36.169559,33.14766232,130.1884204,117.78
13.95,130.188385,33.14767,0.15,86.88,18,5,172,9,36.2158605,33.14767373,130.188412,104.19
14.1,130.188385,33.14767,0.15,86.88,18,5,172,9,36.447361,33.14768522,130.1884034,104.19
14.25,130.188385,33.14767,0.15,86.88,18,5,172,9,36.4288385,33.14769669,130.1883949,104.19
14.4,130.188385,33.14767,0.15,86.88,18,5,172,9,36.632561,33.14770825,130.1883864,135.9
14.55,130.188385,33.14767,0.15,86.88,18,5,172,9,36.9103605,33.14771993,130.1883781,165.345
14.7,130.188385,33.14767,0.15,86.88,18,5,172,9,37.18816,33.14773165,130.1883697,203.85
14.85,130.188385,33.14767,0.15,86.88,6,10,172,9,37.2159405,33.14774338,130.1883613,289.92
15,130.188232,33.147777,0.15,85.75,-33,0,164,9,37.336319,33.14775527,130.1883529,339.75
15.15,130.188232,33.147777,0.15,85.75,-33,0,164,9,37.4289205,33.14776728,130.1883447,375.99
15.3,130.188232,33.147777,0.15,85.75,-33,0,164,9,37.447441,33.14777935,130.1883365,326.16
15.45,130.188232,33.147777,0.15,85.75,-33,0,164,9,37.5030005,33.14779142,130.1883284,244.62
15.6,130.188232,33.147777,0.15,85.75,-33,0,164,9,37.465961,33.14780353,130.1883205,176.67
15.75,130.188232,33.147777,0.15,85.75,-33,0,164,9,37.4752215,33.14781556,130.1883125,151.755
15.9,130.188232,33.147777,0.15,85.75,-33,0,164,9,37.465961,33.14782748,130.1883044,104.19
16.05,130.188232,33.147777,0.15,85.75,-33,0,164,9,37.4752215,33.14783942,130.1882963,97.395
16.2,130.188232,33.147777,0.15,85.75,-33,0,164,9,37.502998,33.14785145,130.188288,99.66
16.35,130.188232,33.147777,0.15,85.75,-33,0,164,9,37.5956,33.14786352,130.1882798,106.455
16.5,130.188247,33.147994,0.15,86.5,47,10,128,9,37.669682,33.1478755,130.1882716,104.19
16.65,130.188293,33.14801,0.15,82.88,47,10,128,9,37.688202,33.1478874,130.1882632,108.72
16.8,130.188293,33.14801,0.15,82.88,47,10,128,9,37.651161,33.14789925,130.1882548,117.78
16.95,130.188293,33.14801,0.15,82.88,47,10,128,9,37.632641,33.14791123,130.1882464,113.25
17.1,130.188293,33.14801,0.15,82.88,47,10,128,9,37.632641,33.14792332,130.1882379,126.84
17.25,130.188293,33.14801,0.15,82.88,47,10,128,9,37.6141205,33.14793556,130.1882296,235.56
17.4,130.188293,33.14801,0.15,82.88,47,10,128,9,37.5956,33.14794793,130.1882211,317.1
17.55,130.188293,33.14801,0.15,82.88,47,10,128,9,37.540039,33.14796034,130.1882126,335.22
17.7,130.188293,33.14801,0.15,82.88,47,10,128,9,37.447441,33.14797267,130.1882041,289.92
17.85,130.188293,33.14801,0.15,82.88,47,10,128,9,37.3640995,33.14798504,130.1881956,224.235
18,130.188293,33.14801,0.15,82.88,47,10,128,9,37.336319,33.14799735,130.188187,167.61
18.15,130.188079,33.148006,0.15,83.75,-4,10,149,9,37.317799,33.14800962,130.1881785,108.72
18.3,130.188079,33.148006,0.15,85.63,-4,10,149,9,37.317799,33.14802183,130.1881701,72.48
18.45,130.188079,33.148006,0.15,85.63,-4,10,149,9,37.3640995,33.14803417,130.1881617,70.215
18.6,130.188079,33.148006,0.15,85.63,-4,10,149,9,37.447441,33.14804643,130.188153,63.42
18.75,130.188079,33.148006,0.15,85.63,-4,10,149,9,37.4844795,33.14805869,130.1881444,77.01
18.9,130.188079,33.148006,0.15,85.63,-4,10,149,9,37.502998,33.14807103,130.1881359,108.72
19.05,130.188079,33.148006,0.15,85.63,-4,10,149,9,37.5122585,33.14808328,130.1881274,154.02
19.2,130.188079,33.148006,0.15,85.63,-4,10,149,9,37.540039,33.14809552,130.188119,154.02
19.35,130.188079,33.148006,0.15,85.63,-4,10,149,9,37.549299,33.1481077,130.1881106,163.08
19.5,130.188079,33.148006,0.15,85.63,-4,10,149,9,37.558559,33.14811988,130.1881024,262.74
19.65,130.188079,33.148025,0.15,83.5,-26,3,100,9,37.734499,33.14813219,130.1880942,323.895
19.8,130.187957,33.148159,0.15,83.94,-24,0,250,9,37.558559,33.14814432,130.188086,326.16
19.95,130.187957,33.148159,0.15,83.94,-24,0,250,9,37.40114,33.14815639,130.1880777,369.195
20.1,130.187957,33.148159,0.15,83.94,-24,0,250,9,37.317799,33.14816838,130.1880692,262.74
20.25,130.187957,33.148159,0.15,83.94,-24,0,250,9,37.28076,33.14818042,130.1880609,210.645
20.4,130.187957,33.148159,0.15,83.94,-24,0,250,9,37.243721,33.14819247,130.1880526,144.96
20.55,130.187957,33.148159,0.15,83.94,-24,0,250,9,37.243721,33.14820437,130.1880443,88.335
20.7,130.187957,33.148159,0.15,83.94,-24,0,250,9,37.20668,33.1482162,130.1880361,77.01
20.85,130.187957,33.148159,0.15,83.94,-24,0,250,9,37.2159405,33.14822799,130.188028,74.745
21,130.187957,33.148159,0.15,83.94,-24,0,250,9,37.243721,33.14823983,130.1880198,77.01
21.15,130.187957,33.148159,0.15,83.94,-24,0,250,9,37.234461,33.14825159,130.1880115,81.54
21.3,130.187957,33.148387,0.15,85.19,49,6,201,9,37.243721,33.14826332,130.1880032,99.66
21.45,130.187957,33.148391,0.15,85.19,49,6,201,9,37.5307785,33.1482752,130.1879947,122.31
21.6,130.187957,33.148391,0.15,85.19,49,6,201,9,37.37336,33.14828702,130.1879861,144.96
21.75,130.187957,33.148391,0.15,85.19,49,6,201,9,37.38262,33.14829879,130.1879773,122.31
21.9,130.187957,33.148391,0.15,85.19,49,6,201,9,37.37336,33.14831082,130.1879688,108.72
22.05,130.187957,33.148391,0.15,85.19,49,6,201,9,37.5585595,33.14832298,130.1879603,129.105
22.2,130.187957,33.148391,0.15,85.19,49,6,201,9,37.37336,33.14833515,130.1879519,131.37
22.35,130.187957,33.148391,0.15,85.19,49,6,201,9,37.4381805,33.14834736,130.1879434,237.825
22.5,130.187957,33.148391,0.15,85.19,49,6,201,9,37.37336,33.1483596,130.1879348,317.1
22.65,130.187957,33.148391,0.15,85.19,49,6,201,9,37.354839,33.14837191,130.1879263,321.63
22.8,130.188018,33.148391,0.15,82.69,46,6,201,9,37.37336,33.1483842,130.1879178,298.98
22.95,130.18782,33.148414,0.15,87.88,-7,6,173,9,37.4289205,33.1483965,130.1879094,231.03
23.1,130.18782,33.148414,0.15,87.88,-7,6,173,9,37.540039,33.14840873,130.1879008,140.43
23.25,130.18782,33.148414,0.15,87.88,-7,6,173,9,37.60486,33.14842094,130.1878922,115.515
23.4,130.18782,33.148414,0.15,87.88,-7,6,173,9,37.688202,33.1484332,130.1878838,90.6
23.55,130.18782,33.148414,0.15,87.88,-7,6,173,9,37.7437595,33.14844542,130.1878756,63.42
23.7,130.18782,33.148414,0.15,87.88,-7,6,173,9,37.836361,33.14845762,130.1878672,45.3
23.85,130.18782,33.148414,0.15,87.88,-7,6,173,9,37.928959,33.1484698,130.1878587,54.36
24,130.18782,33.148414,0.15,87.88,-7,6,173,9,37.98452,33.14848175,130.18785,77.01
24.15,130.18782,33.148414,0.15,87.88,-7,6,173,9,38.049341,33.14849367,130.1878413,106.455
24.3,130.18782,33.148414,0.15,87.88,-7,6,173,9,38.095638,33.14850557,130.1878325,122.31
24.45,130.187652,33.148574,0.15,85.75,-27,10,148,9,38.2160205,33.14851759,130.1878238,129.105
24.6,130.187652,33.148574,0.15,86.63,-27,10,148,9,38.280842,33.14852967,130.1878151,181.2
24.75,130.187652,33.148574,0.15,86.63,-27,10,148,9,38.3734395,33.14854163,130.1878063,314.835
24.9,130.187652,33.148574,0.15,86.63,-27,10,148,9,38.429001,33.14855368,130.1877976,280.86
25.05,130.187652,33.148574,0.15,86.63,-27,10,148,9,38.521599,33.14856583,130.1877889,292.185
25.2,130.187652,33.148574,0.15,86.63,-27,10,148,9,38.614201,33.14857802,130.1877803,235.56
25.35,130.187652,33.148574,0.15,86.63,-27,10,148,9,38.67902,33.14859029,130.1877718,169.875
25.5,130.187652,33.148574,0.15,86.63,-27,10,148,9,38.76236,33.14860262,130.1877632,135.9
25.65,130.187652,33.148574,0.15,86.63,-27,10,148,9,38.7901405,33.14861498,130.1877545,131.37
25.8,130.187652,33.148574,0.15,86.63,-27,10,148,9,38.854961,33.14862745,130.1877459,135.9
25.95,130.187652,33.148574,0.15,86.63,-27,12,148,9,38.9568195,33.14864007,130.1877374,140.43
26.1,130.187713,33.148742,0.15,86.13,42,16,128,9,39.040161,33.14865277,130.1877288,149.49
26.25,130.187713,33.148742,0.15,86.13,42,16,128,9,39.1512795,33.14866545,130.1877201,120.045
26.4,130.187713,33.148742,0.15,86.13,42,16,128,9,39.521679,33.14867813,130.1877113,113.25
26.55,130.187713,33.148742,0.15,86.13,42,16,128,9,39.5401995,33.14869098,130.1877023,115.515
26.7,130.187713,33.148742,0.15,86.13,42,16,128,9,39.521679,33.14870383,130.1876932,172.14
26.85,130.187713,33.148742,0.15,86.13,42,16,128,9,39.6976205,33.14871672,130.1876841,258.21
27,130.187713,33.148742,0.15,86.13,42,16,128,9,39.818001,33.14872957,130.1876748,326.16
27.15,130.187713,33.148742,0.15,86.13,42,16,128,9,39.7994805,33.14874226,130.1876653,366.93
27.3,130.187713,33.148742,0.15,86.13,42,16,128,9,39.855042,33.14875498,130.1876559,348.81
27.45,130.187713,33.148742,0.15,86.13,42,16,128,9,39.9013385,33.14876771,130.1876465,244.62
27.6,130.187698,33.148773,0.15,82.94,-1,3,158,9,39.910599,33.14878038,130.187637,163.08
27.75,130.187698,33.148773,0.15,83.82,-24,11,122,9,39.910599,33.14879302,130.1876277,86.07
27.9,130.187698,33.148773,0.15,83.82,-24,11,122,9,39.947639,33.14880572,130.1876182,58.89
28.05,130.187698,33.148773,0.15,83.82,-24,11,122,9,39.96616,33.14881832,130.1876086,52.095
28.2,130.187698,33.148773,0.15,83.82,-24,11,122,9,40.040241,33.14883097,130.1875991,49.83
28.35,130.187698,33.148773,0.15,83.82,-24,11,122,9,40.2532195,33.14884364,130.1875897,52.095
28.5,130.187698,33.148773,0.15,83.82,-24,11,122,9,40.39212,33.14885628,130.1875803,72.48
28.65,130.187698,33.148773,0.15,83.82,-24,11,122,9,40.336559,33.14886894,130.1875709,83.805
28.8,130.187698,33.148773,0.15,83.82,-24,11,122,9,40.484718,33.1488816,130.1875614,104.19
28.95,130.187698,33.148773,0.15,83.82,-24,11,122,9,40.57732,33.1488943,130.1875519,95.13
29.1,130.187698,33.148773,0.15,83.82,-24,11,122,9,40.688438,33.14890725,130.1875425,95.13
29.25,130.1875,33.148998,0.15,85.63,-22,5,144,9,40.734739,33.1489201,130.187533,83.805
29.4,130.1875,33.148998,0.15,85.63,-22,23,144,9,40.706959,33.14893312,130.1875235,86.07
29.55,130.1875,33.148998,0.15,85.63,-22,23,144,9,40.660662,33.14894596,130.1875139,92.865
29.7,130.1875,33.148998,0.15,85.63,-22,23,144,9,40.614361,33.14895878,130.1875044,126.84
29.85,130.1875,33.148998,0.15,85.63,-22,23,144,9,40.5310195,33.14897173,130.187495,149.49
30,130.1875,33.148998,0.15,85.63,-22,23,144,9,40.484718,33.14898473,130.1874857,163.08
30.15,130.1875,33.148998,0.15,85.63,-22,23,144,9,40.447681,33.14899793,130.1874764,160.815
30.3,130.1875,33.148998,0.15,85.63,-22,23,144,9,40.447681,33.14901113,130.1874671,163.08
30.45,130.1875,33.148998,0.15,85.63,-22,23,144,9,40.4199005,33.14902424,130.1874578,149.49
30.6,130.1875,33.148998,0.15,85.63,-22,23,144,9,40.35508,33.14903738,130.1874487,117.78
30.75,130.187377,33.149196,0.15,85.63,-22,23,127,9,40.225441,33.14905053,130.1874397,101.925
30.9,130.187393,33.149131,0.15,83.75,25,20,128,9,40.114319,33.1490637,130.1874306,99.66
31.05,130.187393,33.149131,0.15,83.75,25,20,128,9,39.79022,33.14907678,130.1874218,99.66
31.2,130.187393,33.149131,0.15,83.75,25,20,128,9,39.818001,33.14908987,130.187413,90.6
31.35,130.187393,33.149131,0.15,83.75,25,20,128,9,39.734659,33.14910292,130.1874042,83.805
31.5,130.187393,33.149131,0.15,83.75,25,20,128,9,39.651321,33.14911592,130.1873953,63.42
31.65,130.187393,33.149131,0.15,83.75,25,20,128,9,39.632801,33.14912875,130.1873861,56.625
31.8,130.187393,33.149131,0.15,83.75,25,20,128,9,39.651321,33.14914158,130.1873767,67.95
31.95,130.187393,33.149131,0.15,83.75,25,20,128,9,39.651321,33.14915447,130.1873674,95.13
32.1,130.187393,33.149131,0.15,83.75,25,20,128,9,39.651321,33.14916745,130.1873581,131.37
32.25,130.187393,33.149131,0.15,83.75,25,20,128,9,39.632801,33.14918058,130.187349,176.67
32.4,130.187286,33.149269,0.15,83.75,27,-22,140,9,39.57724,33.14919365,130.1873398,240.09
32.55,130.187286,33.149269,0.15,86.63,27,-22,140,9,39.530939,33.14920657,130.1873305,310.305
32.7,130.187286,33.149269,0.15,86.63,27,-22,140,9,39.484638,33.14921953,130.1873212,357.87
32.85,130.187286,33.149269,0.15,86.63,27,-22,140,9,39.4568615,33.14923248,130.187312,287.655
33,130.187286,33.149269,0.15,86.63,27,-22,140,9,39.39204,33.14924542,130.1873028,235.56
33.15,130.187286,33.149269,0.15,86.63,27,-22,140,9,39.3179585,33.14925824,130.187294,174.405
33.3,130.187286,33.149269,0.15,86.63,27,-22,140,9,39.280918,33.149271,130.1872852,126.84
33.45,130.187286,33.149269,0.15,86.63,27,-22,140,9,39.243881,33.1492837,130.1872764,99.66
33.6,130.187286,33.149269,0.15,86.63,27,-22,140,9,39.225361,33.14929645,130.1872676,81.54
33.75,130.187286,33.149269,0.15,86.63,27,-22,140,9,39.17906,33.14930903,130.1872588,70.215
33.9,130.187286,33.149269,0.15,86.63,14,6,123,9,39.114239,33.1493215,130.18725,72.48
34.05,130.187042,33.149368,0.15,84.57,-33,-1,119,9,39.142019,33.14933398,130.1872412,72.48
34.2,130.187042,33.149368,0.15,84.57,-33,-1,119,9,39.151279,33.1493467,130.1872326,45.3
34.35,130.187042,33.149368,0.15,84.57,-33,-1,119,9,39.2531395,33.14935928,130.187224,49.83
34.5,130.187042,33.149368,0.15,84.57,-33,-1,119,9,39.262402,33.14937183,130.1872154,49.83
34.65,130.187042,33.149368,0.15,84.57,-33,-1,119,9,39.2438795,33.14938429,130.1872066,67.95
34.8,130.187042,33.149368,0.15,84.57,-33,-1,119,9,39.151279,33.14939667,130.1871977,122.31
34.95,130.187042,33.149368,0.15,84.57,-33,-1,119,9,39.0494215,33.14940941,130.187189,151.755
35.1,130.187042,33.149368,0.15,84.57,-33,-1,119,9,39.021641,33.14942207,130.18718,172.14
35.25,130.187042,33.149368,0.15,84.57,-33,-1,119,9,38.9846,33.14943452,130.1871708,231.03
35.4,130.187042,33.149368,0.15,84.57,-33,-1,119,9,39.00312,33.14944713,130.1871619,285.39
35.55,130.187072,33.149517,0.15,84.57,9,0,194,9,38.9568195,33.14945988,130.1871532,262.74
35.7,130.187072,33.149517,0.15,85.13,9,0,194,9,39.021641,33.1494726,130.1871443,231.03
35.85,130.187072,33.149517,0.15,85.13,9,0,194,9,39.040161,33.14948527,130.1871353,201.585
36,130.187072,33.149517,0.15,85.13,9,0,194,9,39.077202,33.1494979,130.1871265,154.02
36.15,130.187072,33.149517,0.15,85.13,9,0,194,9,39.1142385,33.1495104,130.1871175,140.43
36.3,130.187072,33.149517,0.15,85.13,9,0,194,9,39.095718,33.14952277,130.1871085,122.31
36.45,130.187072,33.149517,0.15,85.13,9,0,194,9,39.08646,33.14953519,130.1870993,79.275
36.6,130.187072,33.149517,0.15,85.13,9,0,194,9,39.040161,33.14954755,130.1870901,63.42
36.75,130.187072,33.149517,0.15,85.13,9,0,194,9,39.049421,33.14955994,130.1870808,54.36
36.9,130.187072,33.149517,0.15,85.13,9,0,194,9,39.114239,33.14957258,130.1870717,72.48
37.05,130.187072,33.149517,0.15,85.13,14,22,194,9,39.2531395,33.14958542,130.1870627,90.6
37.2,130.187072,33.149707,0.15,86.38,31,-19,129,9,39.299438,33.14959813,130.1870535,126.84
37.35,130.187072,33.149707,0.15,86.38,31,-19,129,9,39.290178,33.14961077,130.1870442,165.345
37.5,130.187072,33.149707,0.15,86.38,31,-19,129,9,39.206841,33.1496236,130.1870353,163.08
37.65,130.187072,33.149707,0.15,86.38,31,-19,129,9,39.262402,33.14963637,130.1870263,174.405
37.8,130.187072,33.149707,0.15,86.38,31,-19,129,9,39.243881,33.14964917,130.1870175,154.02
37.95,130.187072,33.149707,0.15,86.38,31,-19,129,9,39.216101,33.14966186,130.1870087,124.575
38.1,130.187072,33.149707,0.15,86.38,31,-19,129,9,39.151279,33.14967462,130.187,86.07
38.25,130.187072,33.149707,0.15,86.38,31,-19,129,9,39.114239,33.14968764,130.1869915,72.48
38.4,130.187072,33.149707,0.15,86.38,31,-19,129,9,39.095718,33.14970083,130.1869832,77.01
38.55,130.187072,33.149707,0.15,86.38,31,-19,129,9,39.0679415,33.14971375,130.1869747,65.685
38.7,130.186981,33.149711,0.15,86.38,-37,1,112,9,39.058681,33.14972663,130.186966,67.95
38.85,130.186798,33.149761,0.15,86.07,-37,1,112,9,39.095718,33.14973953,130.1869572,67.95
39,130.186798,33.149761,0.15,86.07,-37,1,112,9,39.077202,33.14975248,130.1869485,67.95
39.15,130.186798,33.149761,0.15,86.07,-37,1,112,9,39.1512795,33.14976523,130.1869396,65.685
39.3,130.186798,33.149761,0.15,86.07,-37,1,112,9,39.206841,33.14977797,130.1869304,77.01
39.45,130.186798,33.149761,0.15,86.07,-37,1,112,9,39.216101,33.14979072,130.1869214,95.13
39.6,130.186798,33.149761,0.15,86.07,-37,1,112,9,39.225361,33.14980355,130.1869125,95.13
39.75,130.186798,33.149761,0.15,86.07,-37,1,112,9,39.234621,33.14981657,130.1869036,92.865
39.9,130.186798,33.149761,0.15,86.07,-37,1,112,9,39.262402,33.14982948,130.1868948,58.89
40.05,130.186798,33.149761,0.15,86.07,-37,1,112,9,39.299438,33.14984241,130.186886,67.95
40.2,130.186798,33.149761,0.15,86.07,-37,1,112,9,39.280918,33.1498552,130.1868772,86.07
40.35,130.186737,33.149936,0.15,85.07,-15,11,201,9,39.2346215,33.14986806,130.1868686,81.54
40.5,130.186737,33.149936,0.15,85.07,-15,11,201,9,39.18832,33.14988098,130.1868601,72.48
40.65,130.186737,33.149936,0.15,85.07,-15,11,201,9,39.1512795,33.14989405,130.1868518,47.565
40.8,130.186737,33.149936,0.15,85.07,-15,11,201,9,39.095718,33.14990702,130.1868436,40.77
40.95,130.186737,33.149936,0.15,85.07,-15,11,201,9,38.7623595,33.14991997,130.1868358,33.975
41.1,130.186737,33.149936,0.15,85.07,-15,11,201,9,38.521599,33.14993278,130.1868283,31.71
41.25,130.186737,33.149936,0.15,85.07,-15,11,201,9,38.2067585,33.14994573,130.1868209,38.505
41.4,130.186737,33.149936,0.15,85.07,-15,11,201,9,37.854881,33.14995845,130.1868136,54.36
41.55,130.186737,33.149936,0.15,85.07,-15,11,201,9,37.48448,33.14997111,130.1868066,45.3
41.7,130.186737,33.149936,0.15,85.07,-15,11,201,9,36.79924,33.14998365,130.1867998,58.89
41.85,130.186737,33.150096,0.15,85.07,-16,2,211,9,36.7251605,33.14999625,130.1867934,67.95
42,130.186721,33.150104,0.15,86.82,-1,2,212,9,36.317719,33.15000885,130.1867872,67.95
42.15,130.186721,33.150104,0.15,86.82,-1,2,212,9,35.743599,33.15002131,130.1867817,90.6
42.3,130.186721,33.150104,0.15,86.82,-1,2,212,9,35.262081,33.15003378,130.1867765,81.54
42.45,130.186721,33.150104,0.15,86.82,-1,2,212,9,34.8176005,33.15004619,130.1867716,92.865
42.6,130.186721,33.150104,0.15,86.82,-1,2,212,9,34.687962,33.15005868,130.186767,86.07
42.75,130.186721,33.150104,0.15,86.82,-1,2,212,9,33.71566,33.1500709,130.1867628,79.275
42.9,130.186721,33.150104,0.15,86.82,-1,2,212,9,33.354519,33.1500828,130.1867588,117.78
43.05,130.186721,33.150104,0.15,86.82,-1,2,212,9,32.7618805,33.15009448,130.1867551,63.42
43.2,130.186721,33.150104,0.15,86.82,-1,2,212,9,32.391479,33.15010608,130.1867515,67.95
43.35,130.186721,33.150104,0.15,86.82,-1,2,212,9,31.81736,33.15011745,130.186748,58.89
43.5,130.186752,33.150249,0.15,83,43,18,224,9,31.372881,33.15012868,130.1867445,36.24
43.65,130.186752,33.150249,0.15,83,43,18,224,9,30.64134,33.15013957,130.186741,29.445
43.8,130.186752,33.150249,0.15,83,43,18,224,9,30.61356,33.15015038,130.1867374,27.18
43.95,130.186752,33.150249,0.15,83,43,18,224,9,29.4560595,33.15016088,130.1867338,11.325
44.1,130.186752,33.150249,0.15,83,43,18,224,9,29.8172,33.15017135,130.1867302,22.65
44.25,130.186752,33.150249,0.15,83,43,18,224,9,28.8078605,33.15018162,130.1867262,18.12
44.4,130.186752,33.150249,0.15,83,43,18,224,9,29.03936,33.15019183,130.1867222,40.77
44.55,130.186752,33.150249,0.15,83,43,18,224,9,28.0855795,33.15020181,130.186718,47.565
44.7,130.186752,33.150249,0.15,83,43,18,224,9,26.7614,33.15021132,130.186714,58.89
44.85,130.186752,33.150249,0.15,83,43,18,224,9,27.4559005,33.15022069,130.1867099,74.745
45,130.186752,33.150249,0.15,83,42,15,165,9,26.705839,33.15022983,130.1867054,99.66
45.15,130.18666,33.150356,0.15,83.63,33,9,174,9,25.2705405,33.15023834,130.1867007,113.25
45.3,130.18666,33.150356,0.15,83.63,33,9,174,9,25.798361,33.15024645,130.1866958,140.43
45.45,130.18666,33.150356,0.15,83.63,33,9,174,9,24.2612,33.15025448,130.1866909,144.96
45.6,130.18666,33.150356,0.15,83.63,33,9,174,9,23.77968,33.1502621,130.186686,176.67
45.75,130.18666,33.150356,0.15,83.63,33,9,174,9,23.4741,33.15026967,130.1866806,163.08
45.9,130.18666,33.150356,0.15,83.63,33,9,174,9,22.55736,33.15027705,130.1866753,144.96
46.05,130.18666,33.150356,0.15,83.63,33,9,174,9,22.3073395,33.15028403,130.1866696,167.61
46.2,130.18666,33.150356,0.15,83.63,33,9,174,9,21.612841,33.1502907,130.1866639,154.02
46.35,130.18666,33.150356,0.15,83.63,33,9,174,9,20.788699,33.15029698,130.1866585,142.695
46.5,130.18666,33.150356,0.15,83.63,33,9,174,9,20.742399,33.15030292,130.1866528,140.43
46.65,130.186492,33.150428,0.15,83.63,52,-26,50,9,19.5108195,33.15030816,130.1866472,124.575
46.8,130.186492,33.150428,0.15,80.57,52,-26,50,9,19.61268,33.15031317,130.1866416,90.6
46.95,130.186492,33.150428,0.15,80.57,52,-26,50,9,18.983,33.15031775,130.1866356,83.805
47.1,130.186492,33.150428,0.15,80.57,52,-26,50,9,18.59408,33.15032212,130.1866296,86.07
47.25,130.186492,33.150428,0.15,80.57,52,-26,50,9,17.418059,33.15032581,130.1866235,79.275
47.4,130.186492,33.150428,0.15,80.57,52,-26,50,9,16.68652,33.15032908,130.1866175,67.95
47.55,130.186492,33.150428,0.15,80.57,52,-26,50,9,16.9180205,33.15033219,130.1866112,49.83
47.7,130.186492,33.150428,0.15,80.57,52,-26,50,9,16.371679,33.15033503,130.186605,45.3
47.85,130.186492,33.150428,0.15,80.57,52,-26,50,9,15.81608,33.15033734,130.1865987,61.155
48,130.186492,33.150428,0.15,80.57,52,-26,50,9,15.33456,33.15033918,130.1865923,99.66
48.15,130.186492,33.150428,0.15,80.57,57,-26,50,9,15.13084,33.1503401,130.1865859,124.575
48.3,130.186386,33.150348,0.15,84.69,36,-21,75,9,14.13076,33.15034052,130.1865797,126.84
48.45,130.186386,33.150348,0.15,84.69,36,-21,75,9,14.06594,33.15034068,130.1865737,117.78
48.6,130.186386,33.150348,0.15,84.69,36,-21,75,9,13.74184,33.15034035,130.1865677,122.31
48.75,130.186386,33.150348,0.15,84.69,36,-21,75,9,13.48256,33.15033923,130.1865622,108.72
48.9,130.186386,33.150348,0.15,84.69,36,-21,75,9,12.8714,33.1503377,130.1865572,95.13
49.05,130.186386,33.150348,0.15,84.69,36,-21,75,9,12.55656,33.15033588,130.1865526,63.42
49.2,130.186386,33.150348,0.15,84.69,36,-21,75,9,12.16764,33.15033412,130.1865484,40.77
49.35,130.186386,33.150348,0.15,84.69,36,-21,75,9,11.9917,33.15033213,130.1865446,36.24
49.5,130.186386,33.150348,0.15,84.69,36,-21,75,9,11.79724,33.15033,130.1865411,36.24
49.65,130.186386,33.150348,0.15,84.69,36,-21,75,9,12.02874,33.15032758,130.1865376,49.83
49.8,130.186386,33.150348,0.15,84.69,44,1,46,9,12.1306,33.15032478,130.1865345,72.48
49.95,130.186355,33.150234,0.15,84.69,44,8,27,9,12.05652,33.15032121,130.1865319,77.01
50.1,130.186355,33.150234,0.15,84.69,44,8,27,9,12.24172,33.15031733,130.1865297,86.07
50.25,130.186355,33.150234,0.15,84.69,44,8,27,9,12.3621,33.15031333,130.1865277,90.6
50.4,130.186355,33.150234,0.15,84.69,44,8,27,9,12.48248,33.15030925,130.1865262,104.19
50.55,130.186355,33.150234,0.15,84.69,44,8,27,9,13.3807,33.15030467,130.186525,101.925
50.7,130.186355,33.150234,0.15,84.69,44,8,27,9,12.85288,33.15030042,130.1865245,95.13
50.85,130.186355,33.150234,0.15,84.69,44,8,27,9,12.44544,33.15029629,130.1865245,77.01
51,130.186355,33.150234,0.15,84.69,44,8,27,9,12.07504,33.15029203,130.1865251,54.36
51.15,130.186355,33.150234,0.15,84.69,44,8,27,9,12.11208,33.15028748,130.186526,54.36
51.3,130.186355,33.150234,0.15,84.69,44,8,27,9,12.05652,33.15028318,130.1865273,54.36
51.45,130.186355,33.150234,0.15,80.63,51,25,14,9,12.02874,33.15027904,130.186529,67.95
51.6,130.186355,33.150234,0.15,80.63,51,25,14,9,12.038,33.15027487,130.1865309,81.54
51.75,130.186355,33.150234,0.15,80.63,51,25,14,9,12.74176,33.15027023,130.1865333,88.335
51.9,130.186355,33.150234,0.15,80.63,51,25,14,9,13.74184,33.1502651,130.186536,95.13
52.05,130.186355,33.150234,0.15,80.63,51,25,14,9,14.31596,33.15026004,130.186539,97.395
52.2,130.186355,33.150234,0.15,80.63,51,25,14,9,14.92712,33.15025498,130.1865423,122.31
52.35,130.186355,33.150234,0.15,80.63,51,25,14,9,15.76978,33.15024966,130.1865458,117.78
52.5,130.186355,33.150234,0.15,80.63,51,25,14,9,16.3902,33.15024428,130.1865496,126.84
52.65,130.186355,33.150234,0.15,80.63,51,25,14,9,16.7791205,33.15023899,130.1865536,138.165
52.8,130.186355,33.150234,0.15,80.63,51,25,14,9,17.464359,33.1502337,130.186558,140.43
52.95,130.186386,33.150138,0.15,80.88,51,25,16,9,17.89958,33.15022813,130.1865625,144.96
53.1,130.186416,33.150089,0.15,79.5,55,17,-7,9,18.464439,33.1502224,130.186567,140.43
53.25,130.186416,33.150089,0.15,79.5,55,17,-7,9,19.1126395,33.15021644,130.1865716,144.96
53.4,130.186416,33.150089,0.15,79.5,55,17,-7,9,19.87196,33.15021033,130.1865764,154.02
53.55,130.186416,33.150089,0.15,79.5,55,17,-7,9,20.1405,33.15020413,130.1865812,140.43
53.7,130.186416,33.150089,0.15,79.5,55,17,-7,9,21.00168,33.15019778,130.1865864,126.84
53.85,130.186416,33.150089,0.15,79.5,55,17,-7,9,21.53876,33.15019111,130.1865917,140.43
54,130.186416,33.150089,0.15,79.5,55,17,-7,9,22.46476,33.15018435,130.1865973,194.79
54.15,130.186416,33.150089,0.15,79.5,55,17,-7,9,22.8166395,33.15017743,130.186603,194.79
54.3,130.186416,33.150089,0.15,79.5,55,17,-7,9,23.15,33.15017028,130.1866088,208.38
54.45,130.186416,33.150089,0.15,79.5,55,17,-7,9,23.99266,33.15016287,130.1866148,185.73
54.6,130.186553,33.150047,0.15,86.5,16,-7,-17,9,24.55752,33.15015528,130.1866209,154.02
54.75,130.186553,33.150047,0.15,87.25,16,-7,-17,9,25.0946,33.15014747,130.186627,147.225
54.9,130.186553,33.150047,0.15,87.25,16,-7,-17,9,25.798361,33.15013945,130.1866333,131.37
55.05,130.186553,33.150047,0.15,87.25,16,-7,-17,9,26.44656,33.15013144,130.1866397,197.055
55.2,130.186553,33.150047,0.15,87.25,16,-7,-17,9,26.83548,33.15012328,130.1866461,317.1
55.35,130.186553,33.150047,0.15,87.25,16,-7,-17,9,27.4836795,33.15011482,130.1866526,321.63
55.5,130.186553,33.150047,0.15,87.25,16,-7,-17,9,27.983721,33.15010613,130.1866591,231.03
55.65,130.186553,33.150047,0.15,87.25,16,-7,-17,9,28.4281995,33.15009722,130.1866659,235.56
55.8,130.186553,33.150047,0.15,87.25,16,-7,-17,9,29.169001,33.15008843,130.186673,122.31
55.95,130.186553,33.150047,0.15,87.25,16,-7,-17,9,29.3449405,33.15007963,130.1866801,129.105
56.1,130.186553,33.150043,0.15,87.25,5,-15,-35,9,29.92832,33.1500704,130.1866871,122.31
56.25,130.186782,33.149997,0.15,85.38,-48,-11,-33,9,30.3357605,33.15006098,130.1866943,99.66
56.4,130.186782,33.149997,0.15,85.38,-48,-11,-33,9,30.669121,33.15005165,130.1867014,108.72
56.55,130.186782,33.149997,0.15,85.38,-48,-11,-33,9,31.56734,33.15004203,130.1867086,149.49
56.7,130.186782,33.149997,0.15,85.38,-48,-11,-33,9,31.947001,33.15003208,130.1867159,144.96
56.85,130.186782,33.149997,0.15,85.38,-48,-11,-33,9,32.076639,33.15002185,130.1867231,165.345
57,130.186782,33.149997,0.15,85.38,-48,-11,-33,9,32.873001,33.1500116,130.1867303,149.49
57.15,130.186782,33.149997,0.15,85.38,-48,-11,-33,9,33.0396805,33.1500009,130.1867374,131.37
57.3,130.186782,33.149997,0.15,85.38,-48,-11,-33,9,33.6138,33.14998995,130.1867446,158.55
57.45,130.186782,33.149997,0.15,85.38,-48,-11,-33,9,33.7434405,33.14997896,130.1867519,258.21
57.6,130.186782,33.149997,0.15,85.38,-48,-11,-33,9,34.22496,33.14996777,130.1867593,375.99
57.75,130.186828,33.149848,0.15,86.38,-24,-7,11,9,34.90094,33.14995623,130.1867669,428.085
57.9,130.186828,33.149848,0.15,88.57,-24,-7,11,9,35.299122,33.14994487,130.1867747,434.88
58.05,130.186828,33.149848,0.15,88.57,-24,-7,11,9,35.5861795,33.14993334,130.1867825,319.365
58.2,130.186828,33.149848,0.15,88.57,-24,-7,11,9,35.706558,33.14992148,130.1867905,276.33
58.35,130.186828,33.149848,0.15,88.57,-24,-7,11,9,35.641739,33.14990945,130.1867985,190.26
58.5,130.186828,33.149848,0.15,88.57,-24,-7,11,9,35.465801,33.14989773,130.1868065,181.2
58.65,130.186828,33.149848,0.15,88.57,-24,-7,11,9,35.3731995,33.14988615,130.1868146,129.105
58.8,130.186828,33.149848,0.15,88.57,-24,-7,11,9,35.262081,33.14987473,130.1868225,86.07
58.95,130.186828,33.149848,0.15,88.57,-24,-7,11,9,35.1787395,33.14986352,130.1868304,97.395
59.1,130.186828,33.149848,0.15,88.57,-24,-7,11,9,35.132439,33.149852,130.1868384,149.49
59.25,130.186828,33.149848,0.15,88.57,-16,2,11,9,35.31764,33.14984033,130.1868466,185.73
59.4,130.186782,33.149692,0.15,89.07,35,0,-41,9,35.243561,33.14982857,130.1868548,172.14
59.55,130.186782,33.149692,0.15,89.07,35,0,-41,9,35.3917195,33.14981677,130.1868628,262.74
59.7,130.186782,33.149692,0.15,89.07,35,0,-41,9,35.854721,33.14980505,130.1868708,380.52
59.85,130.186782,33.149692,0.15,89.07,35,0,-41,9,35.78064,33.1497932,130.1868786,416.76
60,130.186782,33.149692,0.15,89.07,35,0,-41,9,35.928799,33.1497812,130.1868866,375.99
60.15,130.186782,33.149692,0.15,89.07,35,0,-41,9,35.90102,33.14976915,130.1868948,283.125
60.3,130.186782,33.149692,0.15,89.07,35,0,-41,9,35.965839,33.14975682,130.1869033,212.91
60.45,130.186782,33.149692,0.15,89.07,35,0,-41,9,36.0214005,33.14974467,130.1869117,183.465
60.6,130.186782,33.149692,0.15,89.07,35,0,-41,9,36.151039,33.14973287,130.18692,212.91
60.75,130.186782,33.149692,0.15,89.07,35,0,-41,9,36.7529395,33.14972094,130.1869285,169.875
60.9,130.186782,33.149692,0.15,86.38,-48,10,41,9,36.79924,33.14970907,130.186937,158.55
61.05,130.186782,33.149608,0.15,84.19,-48,10,41,9,37.29002,33.14969697,130.1869456,158.55
61.2,130.186782,33.149608,0.15,84.19,-48,10,41,9,37.058521,33.1496847,130.1869542,158.55
61.35,130.186782,33.149608,0.15,84.19,-48,10,41,9,37.6696795,33.14967183,130.1869629,199.32
61.5,130.186782,33.149608,0.15,84.19,-48,10,41,9,37.836361,33.14965883,130.1869715,321.63
61.65,130.186782,33.149608,0.15,84.19,-48,10,41,9,38.08638,33.14964588,130.1869801,498.3
61.8,130.186782,33.149608,0.15,84.19,-48,10,41,9,38.280842,33.14963298,130.1869886,421.29
61.95,130.186782,33.149608,0.15,84.19,-48,10,41,9,38.6234605,33.14962013,130.1869973,409.965
62.1,130.186782,33.149608,0.15,84.19,-48,10,41,9,38.55864,33.14960695,130.187006,289.92
62.25,130.186782,33.149608,0.15,84.19,-48,10,41,9,38.5864205,33.14959345,130.1870144,258.21
62.4,130.186782,33.149608,0.15,84.19,-48,10,41,9,38.614201,33.14958015,130.1870229,176.67
62.55,130.187026,33.14944,0.15,85.44,12,-3,13,9,38.66976,33.14956725,130.1870313,129.105
62.7,130.187026,33.14944,0.15,90.13,12,-3,13,9,38.78088,33.14955465,130.1870397,149.49
62.85,130.187026,33.14944,0.15,90.13,12,-3,13,9,38.8549615,33.14954235,130.1870482,142.695
63,130.187026,33.14944,0.15,90.13,12,-3,13,9,38.891998,33.14953012,130.1870565,149.49
63.15,130.187026,33.14944,0.15,90.13,12,-3,13,9,38.938299,33.14951778,130.1870651,135.9
63.3,130.187026,33.14944,0.15,90.13,12,-3,13,9,38.947559,33.14950513,130.1870737,149.49
63.45,130.187026,33.14944,0.15,90.13,12,-3,13,9,38.96608,33.14949207,130.1870823,147.225
63.6,130.187026,33.14944,0.15,90.13,12,-3,13,9,39.021641,33.14947908,130.1870911,140.43
63.75,130.187026,33.14944,0.15,90.13,12,-3,13,9,39.317959,33.14946591,130.1871001,138.165
63.9,130.187026,33.14944,0.15,90.13,12,-3,13,9,39.317959,33.1494527,130.1871093,149.49
64.05,130.187011,33.149406,0.15,89.19,24,-5,50,9,39.1883205,33.14943984,130.1871183,190.26
64.2,130.187164,33.149307,0.15,87.44,24,2,-33,9,38.891998,33.1494268,130.1871271,289.92
64.35,130.187164,33.149307,0.15,87.44,24,2,-33,9,38.827179,33.14941329,130.1871359,421.29
64.5,130.187164,33.149307,0.15,87.44,24,2,-33,9,38.18824,33.14939972,130.1871444,344.28
64.65,130.187164,33.149307,0.15,87.44,24,2,-33,9,38.6049405,33.14938635,130.1871531,323.895
64.8,130.187164,33.149307,0.15,87.44,24,2,-33,9,38.669762,33.14937298,130.187162,203.85
64.95,130.187164,33.149307,0.15,87.44,24,2,-33,9,38.4660395,33.14936003,130.1871709,167.61
65.1,130.187164,33.149307,0.15,87.44,24,2,-33,9,38.280842,33.14934713,130.18718,190.26
65.25,130.187164,33.149307,0.15,87.44,24,2,-33,9,38.3456595,33.14933418,130.1871891,203.85
65.4,130.187164,33.149307,0.15,87.44,24,2,-33,9,38.37344,33.14932138,130.1871985,267.27
65.55,130.187164,33.149307,0.15,87.44,24,2,-33,9,38.29936,33.14930843,130.1872076,278.595
65.7,130.187393,33.149211,0.15,84.63,-44,14,25,9,38.39196,33.14929535,130.1872166,271.8
65.85,130.187393,33.149211,0.15,83.94,-44,14,25,9,38.4660395,33.149282,130.1872254,339.75
66,130.187393,33.149211,0.15,83.94,-44,14,25,9,38.55864,33.14926862,130.1872343,453
66.15,130.187393,33.149211,0.15,83.94,-44,14,25,9,38.530859,33.14925534,130.1872432,620.61
66.3,130.187393,33.149211,0.15,83.94,-44,14,25,9,38.521599,33.14924233,130.1872524,656.85
66.45,130.187393,33.149211,0.15,83.94,-44,14,25,9,38.5215985,33.14922922,130.1872616,548.13
66.6,130.187393,33.149211,0.15,83.94,-44,14,25,9,38.59568,33.14921607,130.1872707,398.64
66.75,130.187393,33.149211,0.15,83.94,-44,14,25,9,38.69754,33.14920299,130.18728,260.475
66.9,130.187393,33.149211,0.15,83.94,-44,14,25,9,38.78088,33.14918962,130.187289,140.43
67.05,130.187393,33.149211,0.15,83.94,-44,14,25,9,38.8642215,33.14917618,130.1872979,142.695
67.2,130.187393,33.149063,0.15,83.94,-43,8,34,9,38.873482,33.14916285,130.1873069,108.72
67.35,130.187271,33.148921,0.15,89.57,4,-9,40,9,38.845701,33.14914954,130.1873159,149.49
67.5,130.187271,33.148921,0.15,89.57,4,-9,40,9,38.854961,33.14913637,130.1873249,181.2
67.65,130.187271,33.148921,0.15,89.57,4,-9,40,9,38.9197785,33.14912313,130.1873338,203.85
67.8,130.187271,33.148921,0.15,89.57,4,-9,40,9,38.9846,33.14910995,130.1873427,226.5
67.95,130.187271,33.148921,0.15,89.57,4,-9,40,9,39.0586795,33.14909684,130.1873516,221.97
68.1,130.187271,33.148921,0.15,89.57,4,-9,40,9,39.151279,33.14908428,130.1873606,194.79
68.25,130.187271,33.148921,0.15,89.57,4,-9,40,9,39.419821,33.14907193,130.1873698,208.38
68.4,130.187271,33.148921,0.15,89.57,4,-9,40,9,39.280918,33.14905963,130.1873792,285.39
68.55,130.187271,33.148921,0.15,89.57,4,-9,40,9,39.4013005,33.1490473,130.1873886,339.75
68.7,130.187271,33.148921,0.15,89.57,4,-9,40,9,39.317959,33.14903475,130.1873979,439.41
68.85,130.187286,33.148918,0.15,89.44,16,4,-8,9,39.3457395,33.14902205,130.1874071,477.915
69,130.187438,33.148918,0.15,89.44,16,4,-8,9,39.243881,33.14900947,130.1874164,371.46
69.15,130.187438,33.148918,0.15,89.44,16,4,-8,9,39.1883205,33.14899712,130.187426,287.655
69.3,130.187438,33.148918,0.15,89.44,16,4,-8,9,39.206841,33.14898475,130.1874356,199.32
69.45,130.187438,33.148918,0.15,89.44,16,4,-8,9,39.4938985,33.14897232,130.1874453,178.935
69.6,130.187438,33.148918,0.15,89.44,16,4,-8,9,39.447601,33.14895992,130.187455,181.2
69.75,130.187438,33.148918,0.15,89.44,16,4,-8,9,39.429081,33.14894751,130.1874644,190.26
69.9,130.187438,33.148918,0.15,89.44,16,4,-8,9,39.521679,33.14893493,130.1874737,212.91
70.05,130.187438,33.148918,0.15,89.44,16,4,-8,9,39.5587195,33.14892217,130.1874829,187.995
70.2,130.187438,33.148918,0.15,89.44,16,4,-8,9,39.55872,33.14890947,130.1874922,221.97
70.35,130.187438,33.148918,0.15,87.5,8,4,-8,9,39.5401995,33.14889683,130.1875013,255.945
70.5,130.187591,33.148887,0.15,84.88,-45,8,14,0,39.540199,33.1488845,130.1875106,339.75
70.65,130.187591,33.148887,0.15,84.88,-45,8,14,0,39.56798,33.1488721,130.1875197,434.88
70.8,130.187591,33.148887,0.15,84.88,-45,8,14,0,39.59576,33.14886,130.187529,525.48
70.95,130.187591,33.148887,0.15,84.88,-45,8,14,0,39.5679795,33.14884782,130.1875383,446.205
71.1,130.187591,33.148887,0.15,84.88,-45,8,14,0,39.503159,33.14883578,130.1875477,375.99
71.25,130.187591,33.148887,0.15,84.88,-45,8,14,0,39.512419,33.14882336,130.1875571,296.715
71.4,130.187591,33.148887,0.15,84.88,-45,8,14,0,39.521679,33.14881078,130.1875663,199.32
71.55,130.187591,33.148887,0.15,84.88,-45,8,14,0,39.47538,33.14879827,130.1875757,203.85
71.7,130.187591,33.148887,0.15,84.88,-45,8,14,0,39.410561,33.14878557,130.1875852,190.26
71.85,130.187591,33.148887,0.15,84.88,-45,8,14,0,39.3457395,33.14877252,130.1875943,201.585
72,130.187652,33.148544,0.15,87.75,34,-8,63,9,39.317959,33.14875953,130.1876033,221.97
72.15,130.187652,33.148544,0.15,87.75,43,6,63,9,39.299438,33.14874673,130.1876122,187.995
72.3,130.187652,33.148544,0.15,87.75,43,6,63,9,39.317959,33.14873418,130.1876213,149.49
72.45,130.187652,33.148544,0.15,87.75,43,6,63,9,39.3549995,33.1487219,130.1876303,183.465
72.6,130.187652,33.148544,0.15,87.75,43,6,63,9,39.39204,33.14870973,130.1876395,217.44
72.75,130.187652,33.148544,0.15,87.75,43,6,63,9,39.39204,33.14869768,130.1876487,323.895
72.9,130.187652,33.148544,0.15,87.75,43,6,63,9,39.410561,33.14868553,130.1876577,498.3
73.05,130.187652,33.148544,0.15,87.75,43,6,63,9,39.38278,33.14867314,130.1876669,536.805
73.2,130.187652,33.148544,0.15,87.75,43,6,63,9,38.854961,33.14866052,130.1876758,421.29
73.35,130.187652,33.148544,0.15,87.75,43,6,63,9,39.142019,33.14864756,130.1876846,269.535
73.5,130.187652,33.148544,0.15,87.75,43,6,63,9,38.76236,33.14863473,130.1876934,235.56
73.65,130.187576,33.148567,0.15,89.07,-13,3,-47,9,38.9197785,33.14862193,130.1877024,197.055
73.8,130.187576,33.148567,0.15,89.07,-13,8,-47,9,39.00312,33.14860925,130.1877117,154.02
73.95,130.187576,33.148567,0.15,89.07,-13,8,-47,9,39.27166,33.14859653,130.187721,138.165
74.1,130.187576,33.148567,0.15,89.07,-13,8,-47,9,39.299438,33.1485839,130.1877302,158.55
74.25,130.187576,33.148567,0.15,89.07,-13,8,-47,9,39.3457395,33.14857104,130.1877391,140.43
74.4,130.187576,33.148567,0.15,89.07,-13,8,-47,9,39.317959,33.14855828,130.187748,135.9
74.55,130.187576,33.148567,0.15,89.07,-13,8,-47,9,39.3086985,33.14854618,130.1877572,126.84
74.7,130.187576,33.148567,0.15,89.07,-13,8,-47,9,39.355,33.14853393,130.1877665,185.73
74.85,130.187576,33.148567,0.15,89.07,-13,8,-47,9,39.4476015,33.14852137,130.1877757,172.14
75,130.187576,33.148567,0.15,89.07,-13,8,-47,9,39.503159,33.14850887,130.1877849,231.03
75.15,130.187728,33.148559,0.15,87.13,-13,8,-6,9,39.521679,33.14849616,130.1877941,360.135
75.3,130.187728,33.148559,0.15,86.38,-32,3,5,9,39.484638,33.14848367,130.1878033,484.71
75.45,130.187728,33.148559,0.15,86.38,-32,3,5,9,39.4013005,33.14847092,130.1878123,514.155
75.6,130.187728,33.148559,0.15,86.38,-32,3,5,9,39.355,33.14845783,130.1878214,385.05
75.75,130.187728,33.148559,0.15,86.38,-32,3,5,9,39.37352,33.14844453,130.1878302,319.365
75.9,130.187728,33.148559,0.15,86.38,-32,3,5,9,39.410561,33.14843097,130.1878389,226.5
76.05,130.187728,33.148559,0.15,86.38,-32,3,5,9,39.447601,33.14841749,130.1878477,183.465
76.2,130.187728,33.148559,0.15,86.38,-32,3,5,9,39.410561,33.1484039,130.1878562,176.67
76.35,130.187728,33.148559,0.15,86.38,-32,3,5,9,39.39204,33.1483905,130.1878649,147.225
76.5,130.187728,33.148559,0.15,86.38,-32,3,5,9,39.410561,33.14837702,130.1878735,154.02
76.65,130.187728,33.148559,0.15,86.38,-32,3,5,9,39.512421,33.14836381,130.1878824,167.61
76.8,130.18782,33.148174,0.15,87.63,48,16,70,9,39.59576,33.14835077,130.1878913,199.32
76.95,130.18782,33.148174,0.15,87.63,48,16,70,9,39.6050205,33.14833775,130.1879003,178.935
77.1,130.18782,33.148174,0.15,87.63,48,16,70,9,39.540199,33.14832472,130.1879093,176.67
77.25,130.18782,33.148174,0.15,87.63,48,16,70,9,39.47538,33.14831157,130.1879182,154.02
77.4,130.18782,33.148174,0.15,87.63,48,16,70,9,39.484638,33.14829835,130.1879272,185.73
77.55,130.18782,33.148174,0.15,87.63,48,16,70,9,39.3179585,33.1482851,130.187936,224.235
77.7,130.18782,33.148174,0.15,87.63,48,16,70,9,39.206841,33.14827162,130.1879448,326.16
77.85,130.18782,33.148174,0.15,87.63,48,16,70,9,39.47538,33.14825782,130.1879538,407.7
78,130.18782,33.148174,0.15,87.63,48,16,70,9,39.39204,33.1482442,130.1879629,416.76
78.15,130.18782,33.148174,0.15,87.63,48,16,70,9,39.447601,33.1482305,130.1879717,369.195
78.3,130.18782,33.148151,0.15,87.63,43,5,41,9,39.503159,33.14821695,130.1879808,267.27
78.45,130.188018,33.148132,0.15,89.57,6,16,-28,9,39.5401995,33.14820367,130.18799,233.295
78.6,130.188018,33.148132,0.15,89.57,6,16,-28,9,39.910599,33.14819015,130.1879992,167.61
78.75,130.188018,33.148132,0.15,89.57,6,16,-28,9,39.79948,33.14817666,130.1880085,169.875
78.9,130.188018,33.148132,0.15,89.57,6,16,-28,9,40.095798,33.14816323,130.1880177,158.55
79.05,130.188018,33.148132,0.15,89.57,6,16,-28,9,39.938379,33.14815003,130.1880269,160.815
79.2,130.188018,33.148132,0.15,89.57,6,16,-28,9,39.910599,33.14813687,130.1880361,163.08
79.35,130.188018,33.148132,0.15,89.57,6,16,-28,9,39.938379,33.14812375,130.1880452,176.67
79.5,130.188018,33.148132,0.15,89.57,6,16,-28,9,39.96616,33.14811057,130.1880544,172.14
79.65,130.188018,33.148132,0.15,89.57,6,16,-28,9,40.0402395,33.14809731,130.1880637,215.175
79.8,130.188018,33.148132,0.15,89.57,6,16,-28,9,40.114319,33.14808415,130.1880729,231.03
79.95,130.188201,33.147983,0.15,85.82,-41,9,1,9,40.1328395,33.14807118,130.1880821,310.305
80.1,130.188201,33.147983,0.15,86.5,-41,9,1,9,40.114319,33.14805837,130.1880914,398.64
80.25,130.188201,33.147983,0.15,86.5,-41,9,1,9,40.095798,33.14804553,130.1881006,450.735
80.4,130.188201,33.147983,0.15,86.5,-41,9,1,9,40.058762,33.14803278,130.1881098,394.11
80.55,130.188201,33.147983,0.15,86.5,-41,9,1,9,40.095798,33.14801996,130.1881189,400.905
80.7,130.188201,33.147983,0.15,86.5,-41,9,1,9,40.15136,33.14800705,130.188128,294.45
80.85,130.188201,33.147983,0.15,86.5,-41,9,1,9,40.2439595,33.14799369,130.1881372,215.175
81,130.188201,33.147983,0.15,86.5,-41,9,1,9,40.318039,33.14798022,130.1881464,212.91
81.15,130.188201,33.147983,0.15,86.5,-41,9,1,9,40.308779,33.14796689,130.1881556,169.875
81.3,130.188201,33.147983,0.15,86.5,-41,9,1,9,40.280998,33.14795373,130.1881646,167.61
81.45,130.188201,33.147983,0.15,86.5,-47,13,1,9,40.216181,33.14794059,130.1881737,140.43
81.6,130.188186,33.147945,0.15,87.5,44,9,66,9,40.280998,33.14792738,130.1881827,135.9
81.75,130.18814,33.147708,0.15,87.5,1,10,43,9,40.318039,33.14791429,130.1881918,165.345
81.9,130.18814,33.147708,0.15,87.5,1,10,43,9,40.318039,33.14790127,130.1882007,221.97
82.05,130.18814,33.147708,0.15,87.5,1,10,43,9,40.234699,33.14788828,130.1882096,183.465
82.2,130.18814,33.147708,0.15,87.5,1,10,43,9,40.225441,33.14787513,130.1882186,167.61
82.35,130.18814,33.147708,0.15,87.5,1,10,43,9,40.2069205,33.14786193,130.1882274,185.73
82.5,130.18814,33.147708,0.15,87.5,1,10,43,9,39.892078,33.14784887,130.1882361,190.26
82.65,130.18814,33.147708,0.15,87.5,1,10,43,9,39.79022,33.14783583,130.1882448,346.545
82.8,130.18814,33.147708,0.15,87.5,1,10,43,9,39.836521,33.14782252,130.1882536,412.23
82.95,130.18814,33.147708,0.15,87.5,1,10,43,9,39.530939,33.14780927,130.1882625,353.34
83.1,130.188293,33.147579,0.15,87.5,1,10,3,9,39.429081,33.14779608,130.1882712,262.74
83.25,130.188491,33.147552,0.15,86,-40,14,63,9,39.4568615,33.14778318,130.1882801,215.175
83.4,130.188491,33.147552,0.15,86,-40,14,63,9,39.55872,33.14777028,130.1882893,199.32
83.55,130.188491,33.147552,0.15,86,-40,14,63,9,39.5679795,33.14775744,130.1882984,160.815
83.7,130.188491,33.147552,0.15,86,-40,14,63,9,39.632801,33.14774475,130.1883078,126.84
83.85,130.188491,33.147552,0.15,86,-40,14,63,9,39.688358,33.14773198,130.188317,120.045
84,130.188491,33.147552,0.15,86,-40,14,63,9,39.743919,33.14771932,130.1883262,117.78
84.15,130.188491,33.147552,0.15,86,-40,14,63,9,39.7624395,33.14770678,130.1883353,106.455
84.3,130.188491,33.147552,0.15,86,-40,14,63,9,39.37352,33.14769443,130.1883443,108.72
84.45,130.188491,33.147552,0.15,86,-40,14,63,9,39.7624395,33.14768213,130.1883534,140.43
84.6,130.188491,33.147552,0.15,86,-40,14,63,9,39.317959,33.14766985,130.1883624,154.02
84.75,130.188491,33.147407,0.15,86,3,17,51,9,39.37352,33.14765744,130.1883714,124.575
84.9,130.188491,33.147407,0.15,89.32,3,17,51,9,39.410561,33.14764498,130.1883803,108.72
85.05,130.188491,33.147407,0.15,89.32,3,17,51,9,39.27166,33.14763263,130.188389,88.335
85.2,130.188491,33.147407,0.15,89.32,3,17,51,9,39.1698,33.1476202,130.1883976,90.6
85.35,130.188491,33.147407,0.15,89.32,3,17,51,9,38.725321,33.14760743,130.1884063,90.6
85.5,130.188491,33.147407,0.15,89.32,3,17,51,9,38.614201,33.14759473,130.188415,117.78
85.65,130.188491,33.147407,0.15,89.32,3,17,51,9,38.540119,33.14758235,130.1884237,124.575
85.8,130.188491,33.147407,0.15,89.32,3,17,51,9,38.41048,33.14756998,130.1884324,90.6
85.95,130.188491,33.147407,0.15,89.32,3,17,51,9,38.1975,33.14755758,130.1884412,144.96
86.1,130.188491,33.147407,0.15,89.32,3,17,51,9,37.910439,33.14754498,130.1884495,158.55
86.25,130.188491,33.147407,0.15,89.32,5,19,54,9,37.753019,33.14753246,130.1884577,77.01
86.4,130.188537,33.147289,0.15,89,4,23,32,9,37.688202,33.14751983,130.1884658,95.13
86.55,130.188537,33.147289,0.15,89,4,23,32,9,37.6233805,33.14750717,130.1884741,74.745
86.7,130.188537,33.147289,0.15,89,4,23,32,9,37.558559,33.14749455,130.1884823,54.36
86.85,130.188537,33.147289,0.15,89,4,23,32,9,37.3640995,33.14748211,130.1884904,45.3
87,130.188537,33.147289,0.15,89,4,23,32,9,37.243721,33.14746985,130.1884984,40.77
87.15,130.188537,33.147289,0.15,89,4,23,32,9,37.141859,33.14745773,130.1885064,29.445
87.3,130.188537,33.147289,0.15,89,4,23,32,9,36.891842,33.14744575,130.1885143,36.24
87.45,130.188537,33.147289,0.15,89,4,23,32,9,36.8733195,33.14743397,130.188522,22.65
87.6,130.188537,33.147289,0.15,89,4,23,32,9,36.78072,33.14742218,130.1885295,13.59
87.75,130.188537,33.147289,0.15,89,4,23,32,9,36.5862595,33.14741022,130.1885365,18.12
87.9,130.188552,33.147289,0.15,89,3,24,38,9,36.280682,33.14739815,130.1885432,13.59
88.05,130.188552,33.147289,0.15,88.82,3,24,38,9,35.8732395,33.147386,130.1885495,31.71
88.2,130.188552,33.147289,0.15,88.82,3,24,38,9,35.243561,33.14737373,130.1885552,54.36
88.35,130.188552,33.147289,0.15,88.82,3,24,38,9,34.7157405,33.14736153,130.1885608,108.72
88.5,130.188552,33.147289,0.15,88.82,3,24,38,9,34.854641,33.1473492,130.1885661,99.66
88.65,130.188552,33.147289,0.15,88.82,3,24,38,9,35.0028,33.1473364,130.1885712,70.215
88.8,130.188552,33.147289,0.15,88.82,3,24,38,9,33.484161,33.14732435,130.1885761,36.24
88.95,130.188552,33.147289,0.15,88.82,3,24,38,9,33.761959,33.14731241,130.1885809,56.625
89.1,130.188552,33.147289,0.15,88.82,3,24,38,9,33.502682,33.1473004,130.1885855,90.6
89.25,130.188552,33.147289,0.15,88.82,3,24,38,9,32.6322405,33.14728845,130.1885899,79.275
89.4,130.188552,33.147289,0.15,88.82,3,24,38,9,31.854401,33.14727655,130.1885939,90.6
89.55,130.188583,33.14722,0.15,88.82,6,7,41,9,31.9284805,33.14726481,130.1885977,70.215
89.7,130.188583,33.14722,0.15,88.57,6,7,41,9,31.891439,33.14725327,130.1886011,63.42
89.85,130.188583,33.14722,0.15,88.57,6,7,41,9,31.6043795,33.14724183,130.1886046,88.335
90,130.188583,33.14722,0.15,88.57,6,7,41,9,31.03952,33.14723058,130.188608,86.07
90.15,130.188583,33.14722,0.15,88.57,6,7,41,9,30.78024,33.14721972,130.1886115,83.805
90.3,130.188583,33.14722,0.15,88.57,6,7,41,9,29.983879,33.14720907,130.1886147,63.42
90.45,130.188583,33.14722,0.15,88.57,6,7,41,9,29.8079405,33.14719839,130.1886178,79.275
90.6,130.188583,33.14722,0.15,88.57,6,7,41,9,29.669041,33.1471877,130.1886208,108.72
90.75,130.188583,33.14722,0.15,88.57,6,7,41,9,29.53014,33.14717688,130.1886241,110.985
90.9,130.188583,33.14722,0.15,88.57,6,7,41,9,28.687481,33.14716643,130.1886275,117.78
91.05,130.188598,33.147171,0.15,88.57,13,18,48,9,28.50228,33.14715641,130.188631,113.25
91.2,130.188598,33.147087,0.15,88.19,13,18,48,9,27.316999,33.14714703,130.1886346,122.31
91.35,130.188598,33.147087,0.15,88.19,13,18,48,9,26.70584,33.14713781,130.1886386,79.275
91.5,130.188598,33.147087,0.15,88.19,13,18,48,9,26.613239,33.1471286,130.1886427,49.83
91.65,130.188598,33.147087,0.15,88.19,13,18,48,9,26.6780605,33.14711984,130.1886467,40.77
91.8,130.188598,33.147087,0.15,88.19,13,18,48,9,25.409439,33.1471116,130.1886507,31.71
91.95,130.188598,33.147087,0.15,88.19,13,18,48,9,24.640861,33.1471036,130.1886546,31.71
92.1,130.188598,33.147087,0.15,88.19,13,18,48,9,24.37232,33.14709583,130.1886591,40.77
92.25,130.188598,33.147087,0.15,88.19,13,18,48,9,24.177859,33.14708808,130.1886637,58.89
92.4,130.188598,33.147087,0.15,88.19,13,18,48,9,24.05748,33.14708065,130.1886685,99.66
92.55,130.188598,33.147087,0.15,88.19,13,18,48,9,23.8907995,33.1470732,130.1886736,86.07
92.7,130.188629,33.147003,0.15,86.94,31,21,15,9,23.09444,33.14706607,130.1886786,108.72
92.85,130.188629,33.147003,0.15,86.94,31,21,15,9,22.0017605,33.14705948,130.1886838,115.515
93,130.188629,33.147003,0.15,86.94,31,21,15,9,21.79804,33.14705323,130.1886893,113.25
93.15,130.188629,33.147003,0.15,86.94,31,21,15,9,20.4275595,33.1470477,130.1886952,113.25
93.3,130.188629,33.147003,0.15,86.94,31,21,15,9,20.11272,33.14704253,130.188701,90.6
93.45,130.188629,33.147003,0.15,86.94,31,21,15,9,19.8626995,33.14703793,130.1887074,67.95
93.6,130.188629,33.147003,0.15,86.94,31,21,15,9,19.723801,33.14703348,130.1887137,45.3
93.75,130.188629,33.147003,0.15,86.94,31,21,15,9,18.7329795,33.14702978,130.1887199,18.12
93.9,130.188629,33.147003,0.15,86.94,31,21,15,9,17.871799,33.14702653,130.1887262,9.06
94.05,130.188629,33.147003,0.15,86.94,31,21,15,9,17.1958195,33.14702385,130.1887326,13.59
94.2,130.188629,33.146961,0.15,86.94,31,22,28,9,16.98284,33.14702158,130.1887389,18.12
94.35,130.188751,33.146926,0.15,83.94,54,7,-24,9,16.41798,33.14701978,130.1887451,38.505
94.5,130.188751,33.146926,0.15,83.94,54,7,-24,9,15.63088,33.1470187,130.1887514,40.77
94.65,130.188751,33.146926,0.15,83.94,54,7,-24,9,15.13084,33.147018,130.1887575,49.83
94.8,130.188751,33.146926,0.15,83.94,54,7,-24,9,14.37152,33.14701775,130.1887636,63.42
94.95,130.188751,33.146926,0.15,83.94,54,7,-24,9,14.23262,33.14701825,130.1887699,70.215
95.1,130.188751,33.146926,0.15,83.94,54,7,-24,9,13.44552,33.14701922,130.1887763,77.01
95.25,130.188751,33.146926,0.15,83.94,54,7,-24,9,13.46404,33.14702063,130.1887826,77.01
95.4,130.188751,33.146926,0.15,83.94,54,7,-24,9,13.11216,33.14702203,130.1887886,72.48
95.55,130.188751,33.146926,0.15,83.94,54,7,-24,9,12.48248,33.14702387,130.1887941,70.215
95.7,130.188751,33.146926,0.15,83.94,54,7,-24,9,11.90836,33.14702583,130.1887992,108.72
95.85,130.188812,33.14693,0.15,73.94,60,27,-44,9,11.07496,33.14702793,130.1888036,167.61
96,130.188827,33.14693,0.15,78.63,60,27,-44,9,11.14904,33.14703025,130.1888078,231.03
96.15,130.188827,33.14693,0.15,78.63,60,27,-44,9,11.03792,33.14703262,130.1888118,201.585
96.3,130.188827,33.14693,0.15,78.63,60,27,-44,9,11.09348,33.14703523,130.1888156,190.26
96.45,130.188827,33.14693,0.15,78.63,60,27,-44,9,11.72316,33.14703806,130.1888193,217.44
96.6,130.188827,33.14693,0.15,78.63,60,27,-44,9,12.46396,33.14704113,130.1888228,231.03
96.75,130.188827,33.14693,0.15,78.63,60,27,-44,9,12.35284,33.14704479,130.1888259,244.62
96.9,130.188827,33.14693,0.15,78.63,60,27,-44,9,12.83436,33.14704868,130.1888289,244.62
97.05,130.188827,33.14693,0.15,78.63,60,27,-44,9,13.04734,33.14705309,130.1888313,197.055
97.2,130.188827,33.14693,0.15,78.63,60,27,-44,9,13.35292,33.14705762,130.1888335,167.61
97.35,130.188827,33.14693,0.15,78.63,63,17,-44,9,13.31588,33.14706226,130.1888349,167.61
97.5,130.188934,33.147048,0.15,78.63,61,-68,-116,9,14.03816,33.14706712,130.1888357,144.96
97.65,130.188934,33.147048,0.15,78.63,61,-68,-116,9,14.47338,33.14707215,130.1888364,126.84
97.8,130.188934,33.147048,0.15,78.63,61,-68,-116,9,15.20492,33.14707743,130.1888362,108.72
97.95,130.188934,33.147048,0.15,78.63,61,-68,-116,9,15.98276,33.14708298,130.1888352,110.985
98.1,130.188934,33.147048,0.15,78.63,61,-68,-116,9,16.742081,33.14708867,130.1888334,95.13
98.25,130.188934,33.147048,0.15,78.63,61,-68,-116,9,17.742161,33.14709472,130.1888309,54.36
98.4,130.188934,33.147048,0.15,78.63,61,-68,-116,9,18.11256,33.14710102,130.1888282,40.77
98.55,130.188934,33.147048,0.15,78.63,61,-68,-116,9,18.49222,33.14710765,130.1888254,29.445
98.7,130.188934,33.147048,0.15,78.63,61,-68,-116,9,18.87188,33.14711443,130.1888221,36.24
98.85,130.188934,33.147048,0.15,78.63,61,-68,-116,9,19.65898,33.14712127,130.1888183,20.385
99,130.188796,33.147178,0.15,83.63,7,-23,-183,9,20.057159,33.1471281,130.1888141,-4.53
99.15,130.188796,33.147178,0.15,83.63,4,-18,-183,9,20.7424005,33.14713478,130.1888093,22.65
99.3,130.188796,33.147178,0.15,83.63,4,-18,-183,9,21.37208,33.1471416,130.1888043,58.89
99.45,130.188796,33.147178,0.15,83.63,4,-18,-183,9,21.93694,33.14714878,130.1887989,206.115
99.6,130.188796,33.147178,0.15,83.63,4,-18,-183,9,22.27956,33.14715605,130.1887935,403.17
99.75,130.188796,33.147178,0.15,83.63,4,-18,-183,9,22.9925795,33.14716344,130.1887878,203.85
99.9,130.188796,33.147178,0.15,83.63,4,-18,-183,9,23.35372,33.14717102,130.1887821,172.14
100.05,130.188796,33.147178,0.15,83.63,4,-18,-183,9,24.3723205,33.14717884,130.188776,154.02
