time,long,lat,dt,H,Roll,pitch,yaw,S,truckSpeed,truck_Lat,truck_long,Tension
0,130.188964,33.146831,0.15,50.19,0,-61,-141,8,0,33.146955,130.1888919,0
0.15,130.188964,33.146831,0.15,50.32,0,-61,-141,8,2.48168,33.14695596,130.188915,2.265
0.3,130.188964,33.146831,0.15,50.32,0,-61,-142,8,3.85216,33.1469572,130.1889146,4.53
0.45,130.188964,33.146831,0.15,50.07,0,-62,-142,8,4.96336,33.14695887,130.1889139,4.53
0.6,130.188964,33.146831,0.15,50.07,0,-62,-144,8,6.019,33.14696095,130.1889131,4.53
0.75,130.188964,33.146831,0.15,50.07,-2,-65,-153,8,6.64868,33.14696332,130.1889123,6.795
0.9,130.188964,33.146831,0.15,50.25,-1,-64,-152,9,7.33392,33.14696597,130.1889113,13.59
1.05,130.188964,33.146831,0.15,50.25,-1,-48,-139,9,8.16732,33.14696901,130.1889102,33.975
1.2,130.188964,33.146831,0.15,50.25,-1,-48,-139,9,8.64884,33.14697223,130.1889088,72.48
1.35,130.188964,33.146831,0.15,51.38,-1,-34,-132,9,9.28778,33.14697573,130.1889074,101.925
1.5,130.188964,33.146831,0.15,51.38,-2,-32,-132,9,9.98228,33.1469794,130.1889059,135.9
1.65,130.188964,33.146831,0.15,51.63,-3,-33,-132,9,10.51936,33.14698342,130.1889043,149.49
1.8,130.188964,33.146831,0.15,51.63,-3,-33,-132,9,11.13052,33.14698765,130.1889027,190.26
1.95,130.188964,33.146831,0.15,51.63,-3,-39,-136,9,11.46388,33.14699202,130.1889009,221.97
2.1,130.188949,33.146846,0.15,52.07,-4,-41,-137,9,11.83428,33.14699652,130.188899,244.62
2.25,130.188949,33.14685,0.15,52.07,-6,-41,-137,9,12.76028,33.14700128,130.1888971,178.935
2.4,130.188949,33.14685,0.15,52.07,-6,-41,-138,9,12.7788,33.14700613,130.1888951,140.43
2.55,130.188949,33.14685,0.15,52.07,-9,-39,-138,9,13.43626,33.14701123,130.1888931,217.44
2.7,130.188949,33.146865,0.15,52.07,-10,-38,-139,9,13.59368,33.14701645,130.188891,140.43
2.85,130.188934,33.146869,0.15,52.07,-12,-39,-141,9,14.41782,33.14702186,130.1888888,88.335
3,130.188934,33.146869,0.15,52.07,-12,-39,-141,9,14.70488,33.14702727,130.1888864,90.6
3.15,130.188934,33.146877,0.15,52.32,-15,-41,-143,9,15.5105,33.14703289,130.1888839,61.155
3.3,130.188934,33.146877,0.15,52.94,-19,-43,-146,9,16.149441,33.14703858,130.1888812,63.42
3.45,130.188934,33.146877,0.15,52.94,-21,-45,-148,9,16.9643205,33.14704427,130.188878,58.89
3.6,130.188934,33.146877,0.15,52.94,-21,-45,-148,9,17.075439,33.14704992,130.1888747,49.83
3.75,130.188919,33.146896,0.15,53.13,-22,-48,-152,9,17.5754805,33.14705578,130.1888711,40.77
3.9,130.188888,33.146903,0.15,53.13,-19,-48,-147,9,17.89032,33.1470616,130.1888675,36.24
4.05,130.188888,33.146911,0.15,53.32,-17,-48,-147,7,18.64964,33.14706757,130.1888635,27.18
4.2,130.188888,33.146911,0.15,53.32,-17,-48,-143,7,19.39044,33.1470736,130.1888593,22.65
4.35,130.188873,33.146923,0.15,53.32,-12,-47,-135,9,19.483041,33.14707943,130.1888549,15.855
4.5,130.188873,33.146923,0.15,56.63,-2,-44,-126,9,19.946039,33.14708515,130.1888503,18.12
4.65,130.188858,33.146957,0.15,56.63,2,-42,-126,9,20.58498,33.14709118,130.1888456,15.855
4.8,130.188858,33.146957,0.15,56.63,2,-42,-123,9,20.66832,33.14709752,130.1888406,13.59
4.95,130.188858,33.146957,0.15,62.63,11,-35,-119,9,21.4924605,33.1471041,130.1888357,9.06
5.1,130.188842,33.147003,0.15,62.63,13,-31,-121,9,22.038799,33.14711082,130.1888306,9.06
5.25,130.188827,33.147029,0.15,67,11,-23,-121,9,23.0574,33.14711809,130.1888253,9.06
5.4,130.188827,33.147029,0.15,67,11,-23,-122,9,23.316681,33.14712545,130.1888199,9.06
5.55,130.188827,33.147029,0.15,67,8,-6,-125,9,23.6778205,33.14713312,130.1888146,15.855
5.7,130.188796,33.147071,0.15,67.13,6,3,-124,9,24.1686,33.14714108,130.1888091,36.24
5.85,130.188796,33.14709,0.15,67.13,5,8,-124,9,24.37232,33.14714917,130.1888034,126.84
6,130.188796,33.14709,0.15,67.13,5,8,-122,9,24.76124,33.14715718,130.1887976,126.84
6.15,130.188781,33.147109,0.15,67.44,5,13,-117,9,25.10386,33.14716543,130.1887916,135.9
6.3,130.188781,33.147125,0.15,67.44,4,21,-111,9,25.205721,33.14717377,130.1887853,108.72
6.45,130.188781,33.147125,0.15,67.07,3,21,-111,9,25.53908,33.14718211,130.188779,126.84
6.6,130.188781,33.147125,0.15,67.07,3,23,-109,9,25.724279,33.14719057,130.1887725,122.31
6.75,130.188766,33.147151,0.15,67.07,3,25,-104,9,26.094681,33.14719904,130.1887659,117.78
6.9,130.188766,33.147151,0.15,66.75,5,26,-100,9,26.187281,33.14720737,130.1887593,131.37
7.05,130.188766,33.147178,0.15,66.75,7,27,-100,9,26.50212,33.14721553,130.1887525,149.49
7.2,130.188766,33.147178,0.15,66.75,7,27,-97,9,26.5762,33.1472238,130.188746,172.14
7.35,130.188766,33.14719,0.15,65.94,11,31,-91,9,27.0854995,33.14723237,130.1887392,185.73
7.5,130.188766,33.147205,0.15,65.94,14,35,-86,9,27.44664,33.14724132,130.1887324,231.03
7.65,130.188751,33.147216,0.15,65.19,15,35,-86,9,27.4096005,33.14725046,130.1887257,183.465
7.8,130.188751,33.147216,0.15,65.19,15,35,-82,9,27.613319,33.14725945,130.1887189,231.03
7.95,130.188751,33.147216,0.15,65.19,17,35,-77,9,27.89112,33.14726844,130.1887122,267.27
8.1,130.188751,33.147239,0.15,63.63,23,36,-71,9,28.1504,33.14727747,130.1887056,190.26
8.25,130.188751,33.147251,0.15,63.63,27,36,-71,9,28.5115395,33.14728666,130.1886992,249.15
8.4,130.188751,33.147251,0.15,63.63,27,36,-68,9,28.53932,33.14729583,130.1886925,158.55
8.55,130.188751,33.147251,0.15,60.38,35,28,-71,9,28.8449,33.14730478,130.1886857,122.31
8.7,130.188751,33.147277,0.15,60.38,46,7,-93,9,29.24308,33.14731415,130.188679,144.96
8.85,130.188735,33.147289,0.15,60.19,46,-3,-93,9,29.3171595,33.14732352,130.1886722,70.215
9,130.188735,33.147289,0.15,60.19,46,-3,-105,9,29.502359,33.14733292,130.1886654,40.77
9.15,130.188735,33.147289,0.15,60.19,40,-16,-126,9,29.6690405,33.14734251,130.1886585,72.48
9.3,130.188705,33.147319,0.15,61,32,-23,-143,9,29.872761,33.14735218,130.1886516,49.83
9.45,130.188705,33.147319,0.15,61,28,-24,-151,9,30.1505605,33.14736212,130.1886448,45.3
9.6,130.188705,33.147319,0.15,61,28,-24,-151,9,30.057961,33.14737215,130.188638,49.83
9.75,130.188674,33.147331,0.15,63.5,18,-24,-166,9,30.02092,33.14738217,130.188631,43.035
9.9,130.188674,33.147331,0.15,63.5,13,-24,-172,9,30.094999,33.14739232,130.1886236,40.77
10.05,130.188629,33.147331,0.15,66.5,1,-20,-172,9,30.280199,33.14740242,130.188616,36.24
10.2,130.188629,33.147331,0.15,66.5,1,-20,177,9,29.983879,33.14741277,130.1886086,36.24
10.35,130.188598,33.147331,0.15,66.5,-17,-14,173,9,30.34502,33.14742281,130.188601,36.24
10.5,130.188598,33.147331,0.15,67.32,-25,-15,-179,9,31.076559,33.14743313,130.1885936,36.24
10.65,130.188537,33.147342,0.15,67.32,-30,-13,-179,9,29.6597805,33.14744324,130.1885864,63.42
10.8,130.188537,33.147342,0.15,67.32,-30,-13,-172,9,31.1136,33.14745265,130.1885786,77.01
10.95,130.188537,33.147342,0.15,67.82,-39,-7,-154,9,30.5394805,33.14746233,130.1885709,99.66
11.1,130.188476,33.147369,0.15,67.82,-43,7,-143,9,29.983879,33.14747235,130.1885635,108.72
11.25,130.188446,33.147388,0.15,66.32,-43,7,-143,9,30.6598595,33.1474825,130.1885561,124.575
11.4,130.188446,33.147388,0.15,66.32,-43,12,-142,9,30.391319,33.14749295,130.1885488,131.37
11.55,130.18843,33.147403,0.15,66.32,-50,29,-135,9,31.0673,33.1475026,130.1885412,131.37
11.7,130.18843,33.147403,0.15,65.69,-42,35,-143,9,31.187679,33.1475124,130.1885335,117.78
11.85,130.1884,33.147438,0.15,65.69,-44,40,-143,9,31.215461,33.14752213,130.1885258,95.13
12,130.1884,33.147438,0.15,65.69,-44,40,-141,9,31.891439,33.14753198,130.1885181,81.54
12.15,130.1884,33.147438,0.15,63.82,-42,41,-142,9,31.7525395,33.14754187,130.1885104,92.865
12.3,130.188385,33.147464,0.15,63.82,-43,33,-138,9,32.372959,33.14755197,130.1885027,95.13
12.45,130.188385,33.147476,0.15,64.13,-43,29,-138,9,32.6970595,33.14756213,130.188495,90.6
12.6,130.188385,33.147476,0.15,64.13,-43,29,-135,9,33.4286,33.1475724,130.1884871,77.01
12.75,130.188385,33.147476,0.15,64.13,-42,25,-131,9,34.0305,33.14758295,130.188479,65.685
12.9,130.188369,33.147499,0.15,64.07,-40,20,-129,9,34.354599,33.14759353,130.1884708,67.95
13.05,130.188369,33.14751,0.15,64.07,-38,18,-129,9,34.752779,33.14760415,130.1884623,108.72
13.2,130.188369,33.14751,0.15,64.07,-38,18,-129,9,35.558399,33.14761517,130.1884537,117.78
13.35,130.188369,33.147525,0.15,63.44,-34,12,-128,9,35.9288005,33.14762667,130.188445,113.25
13.5,130.188369,33.147525,0.15,63.44,-29,5,-126,9,36.59552,33.14763828,130.1884365,81.54
13.65,130.188369,33.147552,0.15,64,-27,-1,-126,9,36.762199,33.14764978,130.1884278,92.865
13.8,130.188369,33.147552,0.15,64,-27,-1,-124,9,37.280762,33.1476613,130.1884191,140.43
13.95,130.188369,33.147552,0.15,64,-19,-6,-123,9,38.0030405,33.14767308,130.18841,158.55
14.1,130.188354,33.147583,0.15,65.57,-12,-8,-124,9,38.077122,33.14768507,130.1884009,154.02
14.25,130.188354,33.147598,0.15,65.57,-10,-8,-124,9,38.88274,33.14769736,130.1883917,138.165
14.4,130.188354,33.147598,0.15,65.57,-10,-8,-125,9,39.132759,33.1477096,130.1883824,144.96
14.55,130.188354,33.147598,0.15,66.25,-11,-4,-129,9,39.438339,33.14772188,130.1883728,142.695
14.7,130.188339,33.147636,0.15,66.25,-12,0,-133,9,39.910599,33.14773443,130.1883632,104.19
14.85,130.188339,33.147636,0.15,66.57,-12,0,-133,9,40.5032385,33.1477473,130.1883537,99.66
15,130.188339,33.147636,0.15,66.57,-12,0,-133,9,40.818081,33.14776042,130.1883439,99.66
15.15,130.188323,33.147674,0.15,66.57,-9,2,-132,9,41.4014605,33.14777369,130.1883339,81.54
15.3,130.188323,33.147674,0.15,67.19,-5,7,-132,9,41.540359,33.147787,130.1883239,104.19
15.45,130.188308,33.147712,0.15,67.19,-4,8,-132,9,42.1515195,33.14780048,130.1883139,77.01
15.6,130.188308,33.147712,0.15,67.19,-4,8,-132,9,42.299679,33.14781402,130.188304,67.95
15.75,130.188308,33.147731,0.15,67.07,-2,6,-134,9,42.3922805,33.14782748,130.1882941,81.54
15.9,130.188308,33.147731,0.15,67.07,-1,2,-135,9,42.94788,33.14784102,130.1882841,86.07
16.05,130.188293,33.147773,0.15,67.57,-1,4,-135,9,43.14234,33.14785468,130.1882739,122.31
16.2,130.188293,33.147773,0.15,67.57,-1,4,-136,9,43.262718,33.14786837,130.1882636,122.31
16.35,130.188293,33.147773,0.15,67.57,0,6,-137,9,43.3923605,33.14788184,130.1882533,104.19
16.5,130.188262,33.147815,0.15,67.57,2,2,-137,9,43.503479,33.14789557,130.188243,117.78
16.65,130.188262,33.147834,0.15,67.57,4,1,-137,9,43.5868205,33.14790928,130.1882328,149.49
16.8,130.188262,33.147834,0.15,67.57,4,1,-138,9,44.040562,33.14792307,130.1882226,149.49
16.95,130.188232,33.147857,0.15,68.25,5,3,-141,9,44.0312995,33.14793702,130.1882125,133.635
17.1,130.188217,33.14788,0.15,68.25,4,4,-144,9,44.466518,33.14795103,130.1882025,126.84
17.25,130.188201,33.147903,0.15,68.57,3,6,-144,9,44.466518,33.14796518,130.1881922,124.575
17.4,130.188201,33.147903,0.15,68.57,3,6,-146,9,44.522079,33.14797957,130.1881819,126.84
17.55,130.188186,33.147922,0.15,68.57,1,12,-147,9,44.75358,33.14799378,130.1881715,115.515
17.7,130.188186,33.147922,0.15,68.75,0,17,-148,9,44.614681,33.14800763,130.1881612,108.72
17.85,130.188156,33.14796,0.15,68.75,0,17,-148,9,44.7165395,33.14802149,130.1881507,99.66
18,130.188156,33.14796,0.15,68.75,0,17,-148,9,45.17028,33.14803533,130.18814,113.25
18.15,130.188156,33.14796,0.15,68.25,-3,17,-149,9,45.105461,33.14804953,130.1881295,142.695
18.3,130.188125,33.147991,0.15,68.25,-5,18,-150,9,45.503639,33.14806368,130.188119,176.67
18.45,130.188125,33.147991,0.15,67.57,-6,18,-150,9,45.494379,33.14807783,130.1881087,142.695
18.6,130.188125,33.147991,0.15,67.57,-6,18,-149,9,45.54068,33.14809197,130.1880986,90.6
18.75,130.18811,33.148029,0.15,67.57,-8,13,-147,9,45.688839,33.14810594,130.1880883,101.925
18.9,130.18811,33.148029,0.15,67.69,-8,9,-144,9,45.911079,33.14812015,130.1880778,99.66
19.05,130.188064,33.148063,0.15,67.69,-9,9,-144,9,46.225922,33.1481346,130.1880673,74.745
19.2,130.188064,33.148063,0.15,67.69,-9,9,-144,9,46.225922,33.14814898,130.1880568,99.66
19.35,130.188064,33.148063,0.15,67.88,-10,6,-143,9,46.2537005,33.14816358,130.1880463,90.6
19.5,130.188049,33.148109,0.15,67.88,-11,6,-141,9,46.670399,33.1481783,130.1880356,95.13
19.65,130.188034,33.148128,0.15,68.5,-10,7,-141,9,46.8185595,33.14819331,130.1880249,142.695
19.8,130.188034,33.148128,0.15,68.5,-10,7,-140,9,46.855598,33.14820833,130.1880141,231.03
19.95,130.188034,33.148128,0.15,68.5,-9,8,-140,9,46.93894,33.1482233,130.1880033,178.935
20.1,130.188003,33.14817,0.15,68.63,-8,10,-139,9,47.300079,33.1482384,130.1879924,108.72
20.25,130.188003,33.148193,0.15,68.63,-7,11,-139,9,47.3093395,33.1482537,130.1879814,129.105
20.4,130.188003,33.148193,0.15,68.63,-7,11,-139,9,47.466759,33.1482691,130.1879703,90.6
20.55,130.188003,33.148193,0.15,68.69,-4,13,-138,9,47.7075195,33.14828445,130.1879593,97.395
20.7,130.187973,33.148235,0.15,68.69,0,12,-138,9,47.966801,33.14830003,130.1879484,86.07
20.85,130.187957,33.148258,0.15,68.75,1,9,-138,9,47.9575405,33.14831588,130.1879375,117.78
21,130.187957,33.148258,0.15,68.75,1,9,-138,9,48.11496,33.14833137,130.1879266,117.78
21.15,130.187957,33.148281,0.15,68.75,2,8,-141,9,48.14274,33.14834703,130.1879157,154.02
21.3,130.187957,33.148281,0.15,68.82,1,12,-143,9,48.263119,33.14836277,130.187905,158.55
21.45,130.187927,33.148323,0.15,68.82,0,14,-143,9,48.3927595,33.14837855,130.1878942,131.37
21.6,130.187927,33.148323,0.15,68.82,0,14,-143,9,48.54092,33.14839422,130.1878832,135.9
21.75,130.187927,33.148323,0.15,68.82,0,17,-143,9,48.7539005,33.14841005,130.1878723,144.96
21.9,130.187896,33.148365,0.15,69.57,0,18,-143,9,48.818722,33.14842592,130.1878612,167.61
22.05,130.187896,33.148365,0.15,68.07,0,18,-143,9,48.8465005,33.14844192,130.1878502,144.96
22.2,130.187896,33.148365,0.15,68.07,0,18,-143,9,48.670559,33.1484579,130.1878391,144.96
22.35,130.187866,33.148403,0.15,68.07,2,12,-140,9,48.6335205,33.14847378,130.1878282,113.25
22.5,130.18785,33.148422,0.15,69.13,4,-1,-139,9,48.559441,33.14848965,130.1878171,77.01
22.65,130.18785,33.148422,0.15,69.13,4,-1,-139,9,48.6057395,33.14850556,130.1878061,97.395
22.8,130.18785,33.148422,0.15,69.13,4,2,-141,9,48.670559,33.14852173,130.1877953,108.72
22.95,130.18785,33.148422,0.15,69.13,3,6,-141,9,48.7076,33.14853815,130.1877848,124.575
23.1,130.18782,33.14849,0.15,69.75,4,14,-142,9,49.096519,33.14855482,130.1877743,144.96
23.25,130.18782,33.14849,0.15,69,4,17,-142,9,49.003922,33.14857182,130.1877635,138.165
23.4,130.18782,33.14849,0.15,69,4,17,-142,9,48.892799,33.14858882,130.1877529,131.37
23.55,130.187789,33.148532,0.15,69,5,16,-143,9,48.9205795,33.14860573,130.187742,117.78
23.7,130.187789,33.148532,0.15,68.32,6,12,-143,9,48.892799,33.14862277,130.1877311,122.31
23.85,130.187759,33.148574,0.15,68.32,6,9,-143,9,48.8372405,33.14863948,130.1877203,117.78
24,130.187759,33.148574,0.15,68.32,6,9,-143,9,48.800201,33.14865617,130.1877092,117.78
24.15,130.187744,33.148597,0.15,68.88,4,8,-143,9,48.7724205,33.14867274,130.1876981,101.925
24.3,130.187744,33.148597,0.15,68.88,4,9,-144,9,48.7076,33.14868917,130.187687,108.72
24.45,130.187713,33.148639,0.15,69.19,3,10,-144,9,48.689079,33.14870558,130.187676,117.78
24.6,130.187713,33.148639,0.15,69.19,3,10,-144,9,48.633518,33.1487221,130.1876652,117.78
24.75,130.187698,33.148662,0.15,69.19,2,10,-144,9,48.587221,33.14873818,130.1876545,99.66
24.9,130.187698,33.148662,0.15,69.19,2,11,-145,9,48.54092,33.14875453,130.187644,95.13
25.05,130.187667,33.148708,0.15,69.44,2,14,-145,9,48.485359,33.14877073,130.1876333,101.925
25.2,130.187667,33.148708,0.15,69.44,2,14,-144,9,48.50388,33.14878687,130.1876226,104.19
25.35,130.187667,33.148708,0.15,69.5,3,16,-143,9,48.485359,33.14880284,130.1876119,115.515
25.5,130.187637,33.148746,0.15,69.5,4,17,-144,9,48.485359,33.14881885,130.1876011,108.72
25.65,130.187637,33.148746,0.15,68.5,3,17,-144,9,48.4020195,33.14883468,130.1875907,110.985
25.8,130.187637,33.148746,0.15,68.5,3,14,-145,9,48.31868,33.1488505,130.1875801,99.66
25.95,130.187606,33.148788,0.15,68.5,3,12,-146,9,48.2260795,33.14886641,130.1875695,104.19
26.1,130.187606,33.148788,0.15,69,3,12,-145,9,48.207561,33.14888223,130.1875591,108.72
26.25,130.187576,33.14883,0.15,69,3,12,-145,9,48.2538585,33.14889804,130.1875486,117.78
26.4,130.187576,33.14883,0.15,69,3,12,-144,9,48.281639,33.1489139,130.1875379,126.84
26.55,130.187576,33.14883,0.15,69.82,1,15,-144,9,48.281639,33.14892982,130.1875271,117.78
26.7,130.187545,33.148872,0.15,69.82,1,17,-145,9,48.263119,33.14894583,130.1875165,117.78
26.85,130.187545,33.148872,0.15,69.13,1,17,-145,9,48.272379,33.14896172,130.1875058,117.78
27,130.187545,33.148872,0.15,69.13,1,16,-145,9,48.263119,33.14897762,130.1874951,126.84
27.15,130.187515,33.14891,0.15,69.13,1,15,-145,9,48.290899,33.14899357,130.1874841,138.165
27.3,130.1875,33.148933,0.15,69,1,13,-144,9,48.281639,33.14900952,130.1874731,135.9
27.45,130.187484,33.148952,0.15,69,2,14,-144,9,48.3372005,33.14902556,130.187462,142.695
27.6,130.187484,33.148952,0.15,69,2,14,-144,9,48.31868,33.1490415,130.1874508,117.78
27.75,130.187484,33.148971,0.15,68.69,3,14,-146,9,48.2538585,33.14905745,130.1874398,113.25
27.9,130.187469,33.14899,0.15,68.69,1,13,-146,9,48.170521,33.14907348,130.1874289,113.25
28.05,130.187454,33.149009,0.15,68.5,0,12,-146,9,48.1520005,33.14908959,130.1874181,88.335
28.2,130.187454,33.149009,0.15,68.5,0,12,-146,9,48.207561,33.14910577,130.1874075,95.13
28.35,130.187438,33.149028,0.15,68.5,0,11,-146,9,48.2260795,33.14912184,130.1873966,104.19
28.5,130.187408,33.149047,0.15,68.75,0,12,-145,9,48.244598,33.14913793,130.1873858,126.84
28.65,130.187408,33.149047,0.15,68.75,0,12,-145,9,48.189041,33.14915392,130.1873749,117.78
28.8,130.187408,33.149047,0.15,68.75,0,12,-144,9,48.13348,33.14916985,130.187364,126.84
28.95,130.187377,33.149089,0.15,68.75,-1,10,-144,9,48.087179,33.14918568,130.1873532,131.37
29.1,130.187377,33.149108,0.15,68.75,0,9,-142,9,48.077919,33.1492015,130.1873424,122.31
29.25,130.187362,33.149131,0.15,68.69,-1,9,-142,9,48.13348,33.14921728,130.1873316,138.165
29.4,130.187362,33.149131,0.15,68.69,-1,9,-142,9,48.189041,33.14923303,130.1873209,135.9
29.55,130.187347,33.14915,0.15,68.69,0,8,-143,9,48.13348,33.14924871,130.1873103,131.37
29.7,130.187332,33.149169,0.15,68.82,-1,9,-144,9,48.13348,33.14926425,130.1872996,117.78
29.85,130.187316,33.149192,0.15,68.82,-1,8,-144,9,48.087179,33.14927983,130.1872888,117.78
30,130.187316,33.149192,0.15,68.82,-1,8,-144,9,48.152,33.14929548,130.187278,117.78
30.15,130.187301,33.149211,0.15,69.25,-1,7,-143,9,48.179781,33.14931124,130.1872672,115.515
30.3,130.187286,33.149234,0.15,69.25,-2,10,-143,9,48.226082,33.14932678,130.1872563,135.9
30.45,130.187286,33.149234,0.15,69.88,-2,10,-143,9,48.3372005,33.14934223,130.1872454,144.96
30.6,130.187286,33.149234,0.15,69.88,-2,14,-142,9,48.226082,33.14935775,130.1872343,149.49
30.75,130.18724,33.149276,0.15,69.88,-2,15,-142,9,48.1705205,33.14937323,130.1872234,110.985
30.9,130.18724,33.149276,0.15,69.13,-3,15,-142,9,48.096439,33.14938865,130.1872124,108.72
31.05,130.187225,33.149318,0.15,69.13,-2,14,-142,9,48.1797805,33.14940413,130.1872015,95.13
31.2,130.187225,33.149318,0.15,69.13,-2,14,-143,9,48.170521,33.14941962,130.1871904,95.13
31.35,130.18721,33.149341,0.15,68.94,0,12,-142,9,48.189041,33.14943513,130.1871795,83.805
31.5,130.18721,33.149341,0.15,68.94,0,10,-142,9,48.226082,33.1494507,130.1871685,90.6
31.65,130.187179,33.149383,0.15,68.57,0,10,-142,9,48.23534,33.14946619,130.1871574,79.275
31.8,130.187179,33.149383,0.15,68.57,0,10,-142,9,48.226082,33.1494816,130.1871465,117.78
31.95,130.187164,33.149406,0.15,68.57,1,9,-142,9,48.189041,33.14949712,130.1871355,151.755
32.1,130.187149,33.149429,0.15,68.5,2,8,-141,9,48.207561,33.1495126,130.1871245,108.72
32.25,130.187133,33.149452,0.15,68.5,1,9,-141,9,48.189041,33.14952839,130.1871135,74.745
32.4,130.187133,33.149452,0.15,68.5,1,9,-141,9,48.207561,33.14954398,130.1871023,90.6
32.55,130.187118,33.149471,0.15,68.88,2,11,-142,9,47.985321,33.14955968,130.1870913,61.155
32.7,130.187118,33.149471,0.15,68.88,3,12,-143,9,48.152,33.14957515,130.1870805,77.01
32.85,130.187088,33.149517,0.15,68.5,4,12,-143,9,47.8834595,33.14959061,130.1870697,72.48
33,130.187088,33.149517,0.15,68.5,4,12,-143,9,47.800121,33.14960608,130.1870589,90.6
33.15,130.187072,33.149536,0.15,68.5,4,9,-145,9,47.8464185,33.14962153,130.1870481,151.755
33.3,130.187057,33.149555,0.15,69.25,5,10,-147,9,47.855679,33.14963712,130.1870374,158.55
33.45,130.187057,33.149555,0.15,69.25,3,10,-147,9,47.772341,33.14965259,130.1870266,110.985
33.6,130.187057,33.149555,0.15,69.25,3,13,-147,9,47.429722,33.14966805,130.1870159,108.72
33.75,130.187026,33.149597,0.15,69.19,2,14,-147,9,47.466759,33.14968369,130.187005,67.95
33.9,130.187026,33.149597,0.15,69.19,0,18,-148,9,47.411201,33.1496991,130.1869944,58.89
34.05,130.186996,33.149635,0.15,69.44,0,19,-148,9,47.272301,33.14971455,130.1869841,72.48
34.2,130.186996,33.149635,0.15,69.44,0,19,-148,9,47.1334,33.14972993,130.1869738,77.01
34.35,130.186981,33.149654,0.15,69.44,0,19,-148,9,47.0685785,33.14974512,130.1869639,72.48
34.5,130.186981,33.149654,0.15,68.88,-1,13,-147,9,46.52224,33.14976038,130.1869541,72.48
34.65,130.18695,33.149692,0.15,68.88,-4,13,-147,9,46.1611005,33.14977565,130.1869443,106.455
34.8,130.18695,33.149692,0.15,68.88,-4,12,-147,9,45.818481,33.14979092,130.186935,122.31
34.95,130.186935,33.149715,0.15,69.25,-4,13,-147,9,45.485119,33.14980655,130.186926,90.6
35.1,130.186935,33.149715,0.15,69.25,-5,17,-147,9,45.318439,33.14982222,130.1869174,81.54
35.25,130.186889,33.149753,0.15,68.88,-5,20,-147,9,44.5313395,33.14983771,130.1869091,79.275
35.4,130.186889,33.149753,0.15,68.88,-5,20,-147,9,44.299839,33.14985333,130.1869012,86.07
35.55,130.186889,33.149772,0.15,68.88,-7,19,-147,9,43.707199,33.14986885,130.1868936,90.6
35.7,130.186889,33.149772,0.15,67.94,-11,16,-146,9,43.3368,33.1498841,130.1868861,86.07
35.85,130.186859,33.149806,0.15,67.94,-13,7,-146,9,43.07752,33.14989988,130.1868791,88.335
36,130.186859,33.149806,0.15,67.94,-13,7,-141,9,42.688599,33.14991513,130.1868723,99.66
36.15,130.186859,33.149806,0.15,68.5,-14,8,-140,9,42.34598,33.14993015,130.1868655,83.805
36.3,130.186828,33.149852,0.15,68.5,-13,12,-139,9,41.799641,33.14994483,130.1868587,95.13
36.45,130.186813,33.149871,0.15,68.44,-13,19,-139,9,41.401461,33.14995954,130.1868522,88.335
36.6,130.186813,33.149871,0.15,68.44,-13,19,-141,9,40.836601,33.14997403,130.1868456,86.07
36.75,130.186813,33.14989,0.15,68.44,-12,19,-140,9,40.1328415,33.14998839,130.186839,81.54
36.9,130.186813,33.14989,0.15,68.44,-11,21,-140,9,39.743919,33.15000248,130.1868325,86.07
37.05,130.186782,33.149925,0.15,67.69,-13,18,-140,9,39.38278,33.15001663,130.1868261,113.25
37.2,130.186782,33.149925,0.15,67.69,-13,18,-141,9,38.725319,33.15003042,130.1868199,149.49
37.35,130.186782,33.149944,0.15,67.44,-15,16,-141,9,38.641981,33.15004416,130.1868138,140.43
37.5,130.186782,33.149944,0.15,67.44,-17,12,-139,9,38.317879,33.15005762,130.1868076,149.49
37.65,130.186752,33.149978,0.15,67.69,-19,14,-139,9,37.6233805,33.15007108,130.1868016,74.745
37.8,130.186752,33.149978,0.15,67.69,-19,14,-136,9,36.873322,33.15008422,130.1867956,104.19
37.95,130.186737,33.150001,0.15,67.69,-19,14,-135,9,36.49366,33.15009708,130.1867897,58.89
38.1,130.186737,33.150016,0.15,67.75,-20,13,-132,9,36.132519,33.1501097,130.1867838,40.77
38.25,130.186737,33.150016,0.15,67.75,-21,13,-132,9,35.3731995,33.15012204,130.186778,54.36
38.4,130.186737,33.150016,0.15,67.75,-21,12,-126,9,35.076881,33.15013437,130.1867722,40.77
38.55,130.186721,33.150054,0.15,67.88,-21,11,-123,9,34.3360805,33.15014672,130.1867661,61.155
38.7,130.186721,33.150077,0.15,67.88,-19,9,-114,9,34.280521,33.15015923,130.18676,40.77
38.85,130.186721,33.150077,0.15,68.38,-15,9,-114,9,33.3823015,33.15017145,130.1867538,65.685
39,130.186721,33.150077,0.15,68.38,-15,9,-107,9,33.058201,33.15018328,130.1867477,63.42
39.15,130.186737,33.150108,0.15,68.38,-11,11,-104,9,32.558159,33.15019504,130.1867418,79.275
39.3,130.186737,33.150108,0.15,68.5,-2,12,-99,9,32.261841,33.1502064,130.1867355,58.89
39.45,130.186752,33.150142,0.15,68.5,7,12,-99,9,31.6599395,33.15021783,130.1867297,88.335
39.6,130.186752,33.150142,0.15,68.5,7,12,-99,9,31.33584,33.15022855,130.186724,77.01
39.75,130.186752,33.150165,0.15,67.44,12,11,-102,9,30.5487405,33.15023907,130.1867184,104.19
39.9,130.186767,33.15018,0.15,67.44,20,7,-111,9,29.3542,33.1502493,130.1867129,72.48
40.05,130.186767,33.15018,0.15,67.75,28,7,-111,9,30.6598595,33.15025971,130.1867078,90.6
40.2,130.186767,33.15018,0.15,67.75,28,6,-121,9,29.11344,33.15027018,130.1867027,95.13
40.35,130.186767,33.150218,0.15,67.75,30,8,-126,9,29.085661,33.15028004,130.186697,97.395
40.5,130.186767,33.150238,0.15,67.94,30,11,-134,9,28.6134,33.15028992,130.1866913,104.19
40.65,130.186752,33.150253,0.15,67.94,28,16,-134,9,27.8726005,33.15029945,130.1866855,88.335
40.8,130.186752,33.150253,0.15,67.94,28,16,-137,9,28.002239,33.15030875,130.1866793,86.07
40.95,130.186737,33.150268,0.15,67.44,26,17,-137,9,26.7151005,33.15031758,130.186673,65.685
41.1,130.186737,33.150268,0.15,67.44,25,17,-136,9,27.409599,33.15032618,130.1866664,67.95
41.25,130.186721,33.150291,0.15,67,26,17,-136,9,26.140981,33.15033421,130.1866597,63.42
41.4,130.186721,33.150291,0.15,67,26,17,-137,9,25.502041,33.15034198,130.1866526,58.89
41.55,130.186721,33.150306,0.15,67,24,16,-136,9,24.7705,33.15034917,130.1866454,61.155
41.7,130.186721,33.150306,0.15,67.25,24,14,-139,9,23.74264,33.15035608,130.1866385,67.95
41.85,130.186706,33.150337,0.15,67.25,25,13,-139,9,23.21482,33.15036198,130.1866312,88.335
42,130.186706,33.150337,0.15,67.25,25,13,-141,9,22.909241,33.15036733,130.1866237,99.66
42.15,130.186706,33.150348,0.15,66.75,25,12,-141,9,21.5758,33.15037167,130.1866165,106.455
42.3,130.186706,33.150348,0.15,66.75,27,11,-143,9,20.98316,33.15037537,130.1866094,108.72
42.45,130.186676,33.150375,0.15,66.5,30,12,-143,9,19.77936,33.15037884,130.186602,120.045
42.6,130.186676,33.150375,0.15,66.5,30,12,-148,9,19.89048,33.15038243,130.1865943,131.37
42.75,130.186676,33.15039,0.15,66.5,31,12,-150,9,19.0107805,33.15038578,130.1865868,124.575
42.9,130.186676,33.15039,0.15,66.07,34,11,-156,9,18.37184,33.15038828,130.1865795,117.78
43.05,130.186645,33.150417,0.15,66.07,38,10,-156,9,17.9644,33.15038972,130.1865724,101.925
43.2,130.186645,33.150417,0.15,66.07,38,10,-166,9,17.57548,33.15039105,130.1865651,108.72
43.35,130.186645,33.150417,0.15,66.63,39,11,-172,9,16.8254205,33.15039185,130.1865581,108.72
43.5,130.186614,33.150432,0.15,66.63,40,10,174,9,16.70504,33.15039237,130.1865513,108.72
43.65,130.186614,33.150432,0.15,66.07,39,10,174,9,15.4734605,33.15039153,130.1865443,97.395
43.8,130.186614,33.150432,0.15,66.07,39,12,165,9,15.81608,33.15039012,130.1865377,95.13
43.95,130.186569,33.15044,0.15,66.07,38,13,162,9,15.01972,33.15038896,130.1865316,83.805
44.1,130.186569,33.15044,0.15,65.5,38,16,160,9,13.83444,33.15038772,130.186526,90.6
44.25,130.186569,33.15044,0.15,65.5,38,16,160,9,13.76962,33.15038541,130.1865198,77.01
44.4,130.186569,33.15044,0.15,65.5,38,19,159,9,13.76036,33.15038248,130.1865142,90.6
44.55,130.186523,33.150455,0.15,64.38,39,18,160,9,13.53812,33.15037937,130.186509,97.395
44.7,130.186508,33.150455,0.15,64.38,42,17,154,9,13.26032,33.15037578,130.1865041,104.19
44.85,130.186492,33.150455,0.15,63.57,47,15,154,9,13.12142,33.15037228,130.1865,115.515
45,130.186492,33.150455,0.15,63.57,47,15,142,9,13.01956,33.1503693,130.1864962,113.25
45.15,130.186477,33.150451,0.15,63.57,49,13,137,9,13.15846,33.15036563,130.1864928,104.19
45.3,130.186462,33.150451,0.15,63.44,53,5,123,9,13.38996,33.15036143,130.1864895,104.19
45.45,130.186431,33.150444,0.15,63.44,54,5,123,9,13.15846,33.15035693,130.1864869,104.19
45.6,130.186431,33.150444,0.15,63.44,54,1,111,9,13.13068,33.15035218,130.1864853,104.19
45.75,130.186416,33.150436,0.15,63.38,54,1,108,9,13.427,33.15034689,130.1864837,88.335
45.9,130.186401,33.150424,0.15,63.38,55,3,104,9,13.00104,33.15034202,130.1864826,77.01
46.05,130.186386,33.150413,0.15,62.75,55,4,104,9,12.51026,33.15033729,130.1864824,65.685
46.2,130.186386,33.150413,0.15,62.75,55,4,101,9,12.20468,33.15033235,130.1864822,45.3
46.35,130.18637,33.150398,0.15,62.75,55,5,99,9,12.88066,33.1503272,130.1864818,45.3
46.5,130.186355,33.150382,0.15,62.69,55,8,97,9,12.2232,33.15032225,130.1864815,40.77
46.65,130.186355,33.150382,0.15,62.69,55,8,97,9,12.0843,33.15031759,130.1864822,33.975
46.8,130.186355,33.150382,0.15,62.69,55,13,96,9,12.09356,33.15031303,130.1864831,27.18
46.95,130.18634,33.150352,0.15,62.32,56,16,95,9,12.65842,33.15030892,130.1864852,22.65
47.1,130.18634,33.150337,0.15,62.32,56,22,96,9,13.7048,33.15030443,130.1864877,18.12
47.25,130.18634,33.150318,0.15,60.88,59,22,96,9,14.14928,33.15030002,130.1864904,22.65
47.4,130.18634,33.150318,0.15,60.88,59,24,95,9,15.0938,33.15029543,130.1864936,36.24
47.55,130.18634,33.150299,0.15,60.88,61,21,91,9,15.08454,33.15029062,130.1864963,31.71
47.7,130.18634,33.150299,0.15,60.63,63,15,84,9,15.13084,33.15028563,130.1864988,40.77
47.85,130.18634,33.150264,0.15,60.63,64,10,84,9,15.9272,33.15028072,130.1865019,29.445
48,130.18634,33.150264,0.15,60.63,64,10,78,9,16.3902,33.15027583,130.1865057,31.71
48.15,130.18634,33.150245,0.15,60.44,65,9,75,9,16.3438995,33.1502712,130.1865102,29.445
48.3,130.186355,33.150226,0.15,60.44,65,9,75,9,16.92728,33.15026677,130.1865153,22.65
48.45,130.18637,33.150211,0.15,61.44,63,9,70,9,17.26064,33.15026187,130.1865204,24.915
48.6,130.18637,33.150211,0.15,61.44,63,9,66,9,17.871799,33.15025677,130.1865255,27.18
48.75,130.18637,33.150196,0.15,61.44,63,11,63,9,18.0107005,33.15025143,130.1865306,38.505
48.9,130.186386,33.15018,0.15,61.07,60,21,62,9,18.445921,33.15024598,130.1865357,58.89
49.05,130.186386,33.15018,0.15,61.07,57,29,62,9,19.05708,33.15024046,130.1865407,70.215
49.2,130.186386,33.15018,0.15,61.07,57,29,65,9,19.29784,33.15023488,130.186546,77.01
49.35,130.186386,33.15018,0.15,61.07,55,33,67,9,20.0108595,33.15022916,130.1865514,74.745
49.5,130.186416,33.150146,0.15,60.38,52,40,72,9,20.11272,33.15022325,130.1865567,72.48
49.65,130.186416,33.150146,0.15,58.88,49,40,72,9,20.54794,33.15021708,130.1865618,72.48
49.8,130.186416,33.150146,0.15,58.88,49,45,79,9,20.909081,33.15021063,130.1865669,72.48
49.95,130.186416,33.150127,0.15,58.88,47,45,82,9,21.242439,33.15020405,130.1865721,67.95
50.1,130.186416,33.150127,0.15,57.63,47,44,85,9,21.631359,33.15019718,130.1865773,72.48
50.25,130.186447,33.150112,0.15,57.63,49,40,85,9,22.2517795,33.15019018,130.1865826,81.54
50.4,130.186447,33.150112,0.15,57.63,49,40,83,9,22.85368,33.15018297,130.186588,90.6
50.55,130.186447,33.150112,0.15,57.63,52,39,80,9,23.7518995,33.15017557,130.186594,101.925
50.7,130.186447,33.150096,0.15,56.88,55,35,76,9,24.57604,33.15016797,130.1866002,122.31
50.85,130.186447,33.150096,0.15,55.94,56,35,76,9,24.8816205,33.1501601,130.1866064,149.49
51,130.186447,33.150096,0.15,55.94,56,36,75,9,25.16868,33.15015222,130.1866128,181.2
51.15,130.186447,33.150096,0.15,55.94,55,38,77,9,26.0576405,33.15014409,130.1866195,219.705
51.3,130.186447,33.150096,0.15,55.94,55,49,87,9,26.594721,33.15013582,130.1866262,253.68
51.45,130.186462,33.150066,0.15,54.75,54,57,99,9,27.1688405,33.15012728,130.1866332,292.185
51.6,130.186462,33.150066,0.15,54.75,54,57,99,9,27.52072,33.15011857,130.1866403,403.17
51.75,130.186477,33.150058,0.15,52.75,56,58,101,9,28.224481,33.15010941,130.1866477,462.06
51.9,130.186477,33.150051,0.15,52.75,64,47,92,9,28.909719,33.15010025,130.1866553,330.69
52.05,130.186477,33.150051,0.15,52.25,72,47,92,9,29.298639,33.15009105,130.1866634,235.56
52.2,130.186477,33.150051,0.15,52.25,72,13,76,9,29.61348,33.1500816,130.1866715,199.32
52.35,130.186492,33.150028,0.15,52.25,71,-8,68,9,30.2802,33.15007178,130.1866794,138.165
52.5,130.186492,33.150028,0.15,52.38,63,-32,53,9,30.63208,33.15006183,130.1866874,117.78
52.65,130.186508,33.150005,0.15,52.38,56,-38,44,9,31.4006595,33.15005172,130.1866955,74.745
52.8,130.186508,33.150005,0.15,52.38,56,-38,44,9,31.687719,33.15004147,130.1867036,54.36
52.95,130.186508,33.150005,0.15,52.38,53,-38,41,9,32.3914795,33.15003106,130.1867118,47.565
53.1,130.186508,33.149982,0.15,54.57,47,-41,35,9,32.910042,33.15002047,130.1867201,40.77
53.25,130.186523,33.149971,0.15,55.69,36,-45,26,9,33.058201,33.15000948,130.1867283,43.035
53.4,130.186523,33.149971,0.15,55.69,36,-45,26,9,33.687881,33.14999835,130.1867365,49.83
53.55,130.186523,33.149963,0.15,55.69,29,-47,21,9,33.99346,33.14998713,130.1867449,65.685
53.7,130.186523,33.149963,0.15,55.5,16,-49,12,9,34.317558,33.14997575,130.1867534,131.37
53.85,130.186538,33.14994,0.15,55.5,11,-47,12,9,34.836121,33.14996453,130.1867621,181.2
54,130.186538,33.14994,0.15,55.5,11,-47,11,9,35.095402,33.14995328,130.1867708,221.97
54.15,130.186538,33.149932,0.15,58,10,-45,12,9,35.4287605,33.14994193,130.1867795,185.73
54.3,130.186553,33.149929,0.15,58,12,-42,20,9,36.076962,33.1499304,130.186788,131.37
54.45,130.186553,33.149929,0.15,68.57,16,-42,20,9,36.345501,33.14991864,130.1867969,99.66
54.6,130.186553,33.149929,0.15,68.57,16,-35,23,9,36.836281,33.14990705,130.186806,67.95
54.75,130.186614,33.14989,0.15,68.57,19,-27,25,9,37.0307405,33.14989518,130.1868152,65.685
54.9,130.186614,33.14989,0.15,68.57,20,-15,27,9,37.5956,33.14988322,130.1868245,54.36
55.05,130.186676,33.149856,0.15,70.82,15,-1,27,9,38.132681,33.14987104,130.1868338,67.95
55.2,130.186676,33.149856,0.15,70.82,15,-1,28,9,38.521599,33.14985887,130.1868431,90.6
55.35,130.186676,33.149856,0.15,72.38,10,13,29,9,39.132759,33.14984633,130.1868526,167.61
55.5,130.186737,33.149833,0.15,72.38,8,18,29,9,39.225361,33.14983383,130.1868623,181.2
55.65,130.186737,33.149833,0.15,71.57,3,24,29,9,40.4013805,33.14982115,130.1868723,99.66
55.8,130.186737,33.149833,0.15,71.57,3,24,28,9,40.410641,33.1498082,130.1868823,72.48
55.95,130.186737,33.149833,0.15,71.57,0,26,28,9,40.7903005,33.14979528,130.1868922,72.48
56.1,130.186798,33.14981,0.15,70.38,-3,25,29,9,41.114399,33.14978235,130.186902,63.42
56.25,130.186813,33.149799,0.15,70.38,-9,17,33,9,41.6792605,33.14976935,130.186912,67.95
56.4,130.186813,33.149799,0.15,70.38,-9,17,33,9,42.484879,33.14975605,130.1869222,95.13
56.55,130.186813,33.149799,0.15,70.38,-12,8,37,9,42.614519,33.14974239,130.1869323,124.575
56.7,130.186843,33.149776,0.15,70.38,-17,-2,46,9,43.225681,33.14972852,130.1869424,126.84
56.85,130.186874,33.149761,0.15,73.38,-17,-2,46,9,43.6423815,33.14971435,130.1869527,113.25
57,130.186874,33.149761,0.15,73.38,-18,1,52,9,44.33688,33.14970002,130.1869631,113.25
57.15,130.186889,33.149738,0.15,73.38,-16,6,53,9,44.9295195,33.14968565,130.1869734,101.925
57.3,130.186889,33.149738,0.15,72.88,-12,15,52,9,44.818401,33.14967132,130.1869837,113.25
57.45,130.18692,33.1497,0.15,72.88,-10,21,50,9,45.3832585,33.14965673,130.1869943,99.66
57.6,130.18692,33.1497,0.15,72.88,-10,21,50,9,45.35548,33.14964188,130.187005,117.78
57.75,130.18692,33.1497,0.15,70.69,-10,20,49,9,46.0499805,33.14962692,130.187016,115.515
57.9,130.18695,33.149669,0.15,70.69,-12,17,50,9,46.33704,33.1496119,130.1870271,113.25
58.05,130.186965,33.149646,0.15,72.5,-13,1,56,9,46.7259595,33.14959706,130.1870383,97.395
58.2,130.186965,33.149646,0.15,72.5,-13,1,56,9,46.781521,33.14958203,130.1870496,122.31
58.35,130.186981,33.149627,0.15,72.5,-11,4,58,9,46.874119,33.14956698,130.1870607,106.455
58.5,130.186996,33.149608,0.15,72.19,-7,11,58,9,46.966721,33.14955185,130.1870717,117.78
58.65,130.187011,33.149589,0.15,72.19,-4,15,55,9,46.985241,33.14953678,130.1870827,126.84
58.8,130.187011,33.149589,0.15,72.19,-4,15,55,9,47.040798,33.14952183,130.1870939,140.43
58.95,130.187011,33.14957,0.15,71.44,-3,16,55,9,46.8741185,33.14950711,130.187105,104.19
59.1,130.187026,33.149551,0.15,71.44,-2,14,55,9,47.11488,33.14949238,130.1871158,99.66
59.25,130.187042,33.149532,0.15,71.57,-2,7,57,9,47.1334,33.14947761,130.1871264,97.395
59.4,130.187042,33.149532,0.15,71.57,-2,7,57,9,47.077839,33.14946262,130.1871372,104.19
59.55,130.187057,33.149513,0.15,71.57,0,6,57,9,47.1611805,33.14944767,130.1871479,120.045
59.7,130.187072,33.14949,0.15,72.25,0,6,57,9,47.170441,33.14943287,130.1871586,113.25
59.85,130.187088,33.149467,0.15,72.25,1,8,57,9,47.5501005,33.14941807,130.1871696,113.25
60,130.187088,33.149467,0.15,72.25,1,8,57,9,47.559361,33.14940337,130.1871805,117.78
60.15,130.187103,33.149448,0.15,72.38,0,10,56,9,47.179701,33.1493885,130.1871913,90.6
60.3,130.187118,33.149425,0.15,72.38,0,9,56,9,47.837158,33.14937375,130.1872021,104.19
60.45,130.187133,33.149402,0.15,72.44,1,9,56,9,47.3278595,33.14935895,130.187213,101.925
60.6,130.187133,33.149402,0.15,72.44,1,9,56,9,47.3186,33.14934405,130.187224,126.84
60.75,130.187133,33.149402,0.15,72.44,2,10,56,9,47.374161,33.14932918,130.1872351,126.84
60.9,130.187133,33.149402,0.15,72.44,3,10,56,9,47.54084,33.1493143,130.1872463,135.9
61.05,130.187179,33.149341,0.15,72,4,10,56,9,47.6056595,33.14929948,130.1872574,106.455
61.2,130.187179,33.149318,0.15,72,4,10,56,9,47.633438,33.14928462,130.1872683,99.66
61.35,130.187179,33.149318,0.15,72,4,9,55,9,47.72604,33.14926968,130.1872794,72.48
61.5,130.187194,33.149299,0.15,72.07,3,7,55,9,47.74456,33.14925475,130.1872904,86.07
61.65,130.18721,33.149276,0.15,72.07,2,9,54,9,47.62418,33.14923974,130.1873012,92.865
61.8,130.18721,33.149257,0.15,72.07,2,9,54,9,47.688999,33.14922463,130.187312,99.66
61.95,130.187225,33.149257,0.15,72.69,2,12,54,9,47.790861,33.14920946,130.1873228,90.6
62.1,130.18724,33.149234,0.15,72.13,3,12,55,9,47.800121,33.1491945,130.1873338,95.13
62.25,130.187271,33.149215,0.15,72.13,3,11,54,9,47.7353,33.14917934,130.1873446,90.6
62.4,130.187271,33.149192,0.15,72.13,3,11,54,9,47.614922,33.14916412,130.1873554,72.48
62.55,130.187271,33.149192,0.15,72.13,3,11,54,9,47.568621,33.14914891,130.1873661,81.54
62.7,130.187286,33.149173,0.15,72.5,3,12,53,9,47.54084,33.14913377,130.1873769,108.72
62.85,130.187301,33.14915,0.15,72.5,3,13,53,9,47.5963995,33.14911863,130.1873877,106.455
63,130.187301,33.14915,0.15,72.5,3,13,53,9,47.633438,33.14910352,130.1873985,135.9
63.15,130.187301,33.14915,0.15,72.32,3,13,54,9,47.5501005,33.14908842,130.1874094,115.515
63.3,130.187301,33.14915,0.15,72.32,4,11,54,9,47.466759,33.14907338,130.1874202,122.31
63.45,130.187301,33.14915,0.15,72.25,4,9,54,9,47.4112015,33.14905842,130.187431,129.105
63.6,130.187301,33.14915,0.15,72.25,4,9,54,9,47.3186,33.14904338,130.1874419,144.96
63.75,130.187301,33.14915,0.15,73.13,4,10,53,9,47.874199,33.14902833,130.187453,92.865
63.9,130.187301,33.14915,0.15,73.13,5,12,52,9,47.503799,33.14901322,130.1874638,95.13
64.05,130.187301,33.14915,0.15,73.13,6,14,52,9,47.5223195,33.14899824,130.1874749,77.01
64.2,130.187301,33.14915,0.15,73.13,6,14,52,9,47.52232,33.14898322,130.1874861,67.95
64.35,130.187301,33.14915,0.15,72.38,7,16,52,9,47.679739,33.14896808,130.1874973,81.54
64.5,130.187301,33.14915,0.15,72.38,6,14,51,9,47.837158,33.14895298,130.1875084,77.01
64.65,130.187438,33.148963,0.15,72.25,6,15,52,9,47.781601,33.14893773,130.1875196,106.455
64.8,130.187438,33.148944,0.15,72.25,6,15,52,9,47.818642,33.14892257,130.1875307,140.43
64.95,130.187438,33.148944,0.15,72.63,6,15,52,9,47.83716,33.14890748,130.1875416,167.61
65.1,130.187454,33.148925,0.15,72.63,5,16,51,9,47.837158,33.14889247,130.1875525,122.31
65.25,130.187469,33.148902,0.15,71.5,6,15,52,9,47.5130595,33.14887747,130.1875634,88.335
65.4,130.187469,33.148883,0.15,71.5,6,15,52,9,47.614922,33.14886225,130.1875742,117.78
65.55,130.187484,33.148883,0.15,71.5,6,14,52,9,47.661221,33.14884728,130.187585,99.66
65.7,130.1875,33.148864,0.15,72.13,7,9,53,9,47.614922,33.14883227,130.1875959,108.72
65.85,130.187515,33.148845,0.15,72.13,6,8,53,9,47.34638,33.14881739,130.1876068,115.515
66,130.187515,33.148822,0.15,72.13,6,8,53,9,47.688999,33.1488026,130.1876178,131.37
66.15,130.18753,33.148822,0.15,72.69,5,8,53,9,47.198219,33.14878783,130.1876287,115.515
66.3,130.187545,33.148799,0.15,72.69,6,8,53,9,47.374161,33.14877278,130.1876396,86.07
66.45,130.187545,33.148799,0.15,73.25,7,12,53,9,47.3834205,33.14875765,130.1876503,92.865
66.6,130.187545,33.148799,0.15,73.25,7,12,55,9,47.448238,33.14874253,130.1876612,67.95
66.75,130.187576,33.14875,0.15,73.25,7,18,55,9,47.5037995,33.14872745,130.187672,63.42
66.9,130.187576,33.14875,0.15,73.25,6,19,56,9,47.207481,33.14871238,130.1876828,67.95
67.05,130.187576,33.14875,0.15,73,7,20,56,9,47.374161,33.14869737,130.1876936,86.07
67.2,130.187576,33.14875,0.15,73,7,20,56,9,47.54084,33.14868232,130.1877044,113.25
67.35,130.187576,33.14875,0.15,73,8,19,58,9,47.4945395,33.14866725,130.1877152,133.635
67.5,130.187622,33.14867,0.15,71.44,10,10,58,9,47.54084,33.14865213,130.1877261,122.31
67.65,130.187622,33.14867,0.15,72.5,10,5,58,9,47.52232,33.14863693,130.187737,135.9
67.8,130.187622,33.14867,0.15,72.5,10,5,55,9,47.54084,33.14862177,130.1877477,122.31
67.95,130.187652,33.148628,0.15,72.5,10,10,55,9,47.53158,33.14860653,130.1877585,99.66
68.1,130.187667,33.148609,0.15,71.82,11,12,55,9,47.503799,33.14859128,130.1877691,95.13
68.25,130.187667,33.148609,0.15,71.82,10,15,56,9,47.485279,33.14857598,130.1877797,81.54
68.4,130.187667,33.148567,0.15,71.82,10,15,56,9,47.466759,33.14856078,130.1877903,99.66
68.55,130.187698,33.148567,0.15,71.57,11,13,55,9,47.4204615,33.14854549,130.1878008,90.6
68.7,130.187713,33.148548,0.15,71.57,11,10,53,9,47.411201,33.14853027,130.1878117,90.6
68.85,130.187728,33.148529,0.15,72.32,8,11,50,9,47.4667585,33.14851509,130.1878226,97.395
69,130.187728,33.148509,0.15,72.32,8,11,50,9,47.52232,33.1485,130.1878335,72.48
69.15,130.187759,33.148509,0.15,72.32,7,13,49,9,47.4945395,33.14848487,130.1878443,77.01
69.3,130.187774,33.14849,0.15,72.5,5,17,48,9,47.429722,33.14846967,130.187855,86.07
69.45,130.187789,33.148475,0.15,72.5,4,16,50,9,47.4760185,33.14845446,130.1878658,79.275
69.6,130.187789,33.148456,0.15,72.5,4,16,50,9,47.503799,33.1484392,130.1878766,99.66
69.75,130.187805,33.148456,0.15,71.82,4,16,51,9,47.5593605,33.14842401,130.1878874,106.455
69.9,130.187805,33.148437,0.15,71.82,3,11,53,9,47.52232,33.1484088,130.1878983,113.25
70.05,130.18782,33.148414,0.15,71.94,4,5,54,9,47.494539,33.14839357,130.1879092,108.72
70.2,130.18782,33.148395,0.15,71.94,4,5,54,9,47.52232,33.14837828,130.18792,99.66
70.35,130.187835,33.148395,0.15,71.94,3,5,54,9,47.54084,33.14836295,130.1879305,110.985
70.5,130.18785,33.148372,0.15,73.13,3,6,54,9,47.040798,33.1483477,130.1879409,113.25
70.65,130.18785,33.148372,0.15,73.13,2,10,53,9,47.2074795,33.14833238,130.1879514,99.66
70.8,130.18785,33.148372,0.15,73.13,2,10,53,9,47.263039,33.14831717,130.1879619,99.66
70.95,130.18785,33.148372,0.15,73.25,3,14,52,9,47.3093395,33.1483018,130.1879725,90.6
71.1,130.187896,33.148311,0.15,73.25,2,15,52,10,47.33712,33.14828647,130.1879832,86.07
71.25,130.187927,33.148292,0.15,73.25,2,17,52,10,47.281559,33.14827103,130.187994,86.07
71.4,130.187927,33.148292,0.15,73.25,2,17,52,10,47.226002,33.1482557,130.1880047,77.01
71.55,130.187927,33.148292,0.15,73.25,1,15,52,10,47.226002,33.14824047,130.1880156,77.01
71.7,130.187957,33.14825,0.15,73.13,1,17,52,10,47.263039,33.14822522,130.1880265,108.72
71.85,130.187957,33.14825,0.15,73.13,2,16,52,10,47.263039,33.14821003,130.1880376,81.54
72,130.187957,33.148216,0.15,73.13,2,16,52,10,47.33712,33.14819473,130.1880486,86.07
72.15,130.187988,33.148216,0.15,72.69,1,16,52,10,47.383421,33.14817945,130.1880595,104.19
72.3,130.187988,33.148197,0.15,72.69,2,14,52,10,47.429722,33.14816415,130.1880706,90.6
72.45,130.187988,33.148197,0.15,72.69,1,12,52,10,47.4945395,33.14814873,130.1880816,106.455
72.6,130.187988,33.148155,0.15,72.69,1,12,52,10,47.559361,33.1481334,130.1880923,140.43
72.75,130.188018,33.148155,0.15,72.32,1,10,52,10,47.6519585,33.14811803,130.188103,120.045
72.9,130.188034,33.148136,0.15,72.44,1,10,52,10,47.670479,33.1481027,130.1881137,117.78
73.05,130.188034,33.148136,0.15,72.44,0,9,52,10,47.6704785,33.14808742,130.1881244,97.395
73.2,130.188034,33.14809,0.15,72.44,0,9,52,10,47.614922,33.14807217,130.1881351,95.13
73.35,130.188064,33.14809,0.15,72.88,0,11,53,10,47.6241795,33.14805697,130.1881456,124.575
73.5,130.188095,33.148071,0.15,72.88,0,12,53,10,47.577881,33.14804153,130.1881561,81.54
73.65,130.188095,33.148052,0.15,73.75,0,14,54,10,47.6056595,33.14802626,130.188167,101.925
73.8,130.188095,33.148052,0.15,73.75,0,14,54,10,47.596401,33.14801093,130.1881779,108.72
73.95,130.188095,33.148052,0.15,73.75,0,17,53,10,47.577881,33.14799546,130.1881882,106.455
74.1,130.188125,33.14801,0.15,72.63,0,16,54,10,47.596401,33.14798003,130.1881988,104.19
74.25,130.188125,33.14801,0.15,72.63,1,15,54,10,47.6612185,33.14796457,130.1882096,115.515
74.4,130.188125,33.147972,0.15,72.63,1,15,54,10,47.74456,33.14794908,130.1882204,104.19
74.55,130.188156,33.147972,0.15,72.69,1,15,53,10,47.763081,33.14793343,130.188231,77.01
74.7,130.188156,33.147972,0.15,72.69,1,14,54,10,47.763081,33.14791787,130.1882418,86.07
74.85,130.188186,33.14793,0.15,71.82,1,13,53,10,48.31868,33.14790213,130.1882529,95.13
75,130.188186,33.14793,0.15,71.82,1,13,53,10,47.670479,33.14788608,130.1882637,95.13
75.15,130.188186,33.14793,0.15,71.82,0,11,53,10,47.670481,33.14787009,130.188274,99.66
75.3,130.188217,33.147891,0.15,72.07,0,8,53,10,47.74456,33.1478541,130.1882846,135.9
75.45,130.188217,33.147872,0.15,72.07,0,8,54,10,47.63344,33.14783817,130.1882949,135.9
75.6,130.188217,33.14785,0.15,72.07,0,8,54,10,48.152,33.1478223,130.1883049,163.08
75.75,130.188232,33.14785,0.15,72.88,0,10,53,10,47.976059,33.14780648,130.1883153,144.96
75.9,130.188262,33.147827,0.15,72.88,0,12,53,10,47.800121,33.14779075,130.1883257,172.14
76.05,130.188262,33.147827,0.15,73.25,0,13,54,10,47.92976,33.14777497,130.1883362,92.865
76.2,130.188262,33.147789,0.15,73.25,0,13,54,10,47.92976,33.14775938,130.1883469,77.01
76.35,130.188293,33.147789,0.15,73.25,0,12,54,10,47.8279,33.14774365,130.1883573,63.42
76.5,130.188308,33.147766,0.15,72.63,0,13,55,10,47.874199,33.14772787,130.1883678,58.89
76.65,130.188308,33.147743,0.15,72.63,0,10,55,10,47.9668005,33.14771207,130.188378,65.685
76.8,130.188308,33.147743,0.15,72.63,0,10,55,10,47.985321,33.1476963,130.1883885,95.13
76.95,130.188308,33.147743,0.15,73.25,0,12,54,10,47.985321,33.14768053,130.1883991,126.84
77.1,130.188339,33.147701,0.15,73.25,0,14,55,10,47.92976,33.14766477,130.1884095,144.96
77.25,130.188339,33.147701,0.15,73.32,0,16,55,10,47.864941,33.14764903,130.1884199,140.43
77.4,130.188339,33.147663,0.15,73.32,0,16,55,10,47.72604,33.14763352,130.1884303,104.19
77.55,130.188369,33.147663,0.15,73.32,1,17,54,10,47.3093395,33.14761815,130.1884408,122.31
77.7,130.188385,33.14764,0.15,73.07,2,17,54,10,47.33712,33.14760275,130.1884514,144.96
77.85,130.188385,33.14764,0.15,73.07,1,14,54,10,47.466761,33.14758748,130.188462,63.42
78,130.188385,33.14764,0.15,73.07,1,14,54,10,46.9482,33.14757223,130.1884724,54.36
78.15,130.188385,33.14764,0.15,72.5,1,9,54,10,46.9204195,33.14755716,130.1884825,65.685
78.3,130.18843,33.147579,0.15,72.5,1,6,55,10,46.707439,33.14754218,130.1884927,40.77
78.45,130.188446,33.147556,0.15,74.63,0,7,54,10,46.5315,33.1475271,130.1885029,70.215
78.6,130.188446,33.147556,0.15,74.63,0,7,54,10,46.003681,33.14751208,130.1885132,72.48
78.75,130.188461,33.147533,0.15,74.63,1,14,52,10,45.96664,33.14749715,130.1885233,117.78
78.9,130.188461,33.14751,0.15,74.69,2,18,52,10,45.855518,33.14748218,130.1885333,154.02
79.05,130.188476,33.147491,0.15,74.69,1,25,50,10,45.6888405,33.1474673,130.1885433,77.01
79.2,130.188476,33.147472,0.15,74.69,1,25,50,10,45.022121,33.14745255,130.1885531,58.89
79.35,130.188491,33.147472,0.15,73.57,0,25,50,10,44.9573,33.14743776,130.1885628,72.48
79.5,130.188491,33.147472,0.15,73.57,1,23,50,10,44.799881,33.14742288,130.188572,45.3
79.65,130.188507,33.147434,0.15,72.88,2,15,52,10,44.4665205,33.14740823,130.1885815,38.505
79.8,130.188507,33.147434,0.15,72.88,2,15,52,10,43.484959,33.14739362,130.1885908,40.77
79.95,130.188507,33.147434,0.15,72.88,1,9,52,10,43.8738805,33.14737883,130.1885993,74.745
80.1,130.188507,33.147434,0.15,73.75,0,11,53,10,43.707199,33.14736405,130.1886083,99.66
80.25,130.188552,33.147373,0.15,73.75,1,14,53,10,42.901579,33.14734934,130.1886173,108.72
80.4,130.188552,33.147373,0.15,73.75,1,14,53,10,42.74416,33.14733493,130.1886261,77.01
80.55,130.188552,33.147373,0.15,73.75,2,13,53,10,42.5404395,33.14732043,130.1886348,77.01
80.7,130.188583,33.147331,0.15,73.88,2,20,52,10,42.35524,33.1473059,130.1886429,54.36
80.85,130.188583,33.147312,0.15,73.88,4,26,49,10,41.6051805,33.14729146,130.1886509,83.805
81,130.188583,33.147312,0.15,73.88,4,26,49,10,40.892159,33.14727697,130.1886582,140.43
81.15,130.188583,33.147312,0.15,73.25,6,23,51,10,40.4476795,33.14726254,130.1886651,163.08
81.3,130.188613,33.147277,0.15,73.25,5,23,51,10,39.98468,33.14724805,130.1886716,104.19
81.45,130.188613,33.147262,0.15,71.94,3,13,52,10,39.0031205,33.14723388,130.1886777,72.48
81.6,130.188613,33.147243,0.15,71.94,3,13,52,10,38.59568,33.14721975,130.188683,86.07
81.75,130.188629,33.147243,0.15,72.57,1,13,53,10,37.9567395,33.14720613,130.1886883,95.13
81.9,130.188644,33.147224,0.15,72.57,0,14,54,10,37.651161,33.14719242,130.1886929,104.19
82.05,130.188659,33.147209,0.15,72.5,0,18,53,10,37.317799,33.14717857,130.1886974,95.13
82.2,130.188659,33.147209,0.15,72.5,0,18,53,10,36.98444,33.14716513,130.1887021,81.54
82.35,130.188659,33.14719,0.15,72.5,0,22,53,10,36.345499,33.14715181,130.1887065,43.035
82.5,130.188674,33.147174,0.15,71.44,0,20,54,10,35.669521,33.1471389,130.188711,36.24
82.65,130.188674,33.147174,0.15,71.44,0,16,54,10,35.243561,33.14712649,130.1887159,65.685
82.8,130.188674,33.147144,0.15,71.44,0,16,54,10,34.947239,33.14711442,130.1887215,95.13
82.95,130.18869,33.147144,0.15,71.82,-5,10,52,10,34.7712995,33.14710246,130.1887268,65.685
83.1,130.188705,33.147129,0.15,71.82,-4,11,52,10,34.22496,33.14709063,130.188732,86.07
83.25,130.188705,33.147109,0.15,71.19,-6,14,52,10,33.22488,33.14707912,130.1887368,126.84
83.4,130.188705,33.147109,0.15,71.19,-6,14,52,10,32.854481,33.1470679,130.1887419,135.9
83.55,130.188705,33.147109,0.15,71.19,-10,13,52,10,31.771061,33.14705694,130.1887465,160.815
83.7,130.18872,33.147075,0.15,71.19,-11,8,55,10,30.52096,33.14704652,130.1887512,163.08
83.85,130.18872,33.147075,0.15,71.19,-13,5,55,10,30.3728,33.14703644,130.1887563,154.02
84,130.18872,33.147075,0.15,71.19,-13,5,64,10,30.20612,33.14702642,130.1887614,149.49
84.15,130.188735,33.147037,0.15,72.38,-10,14,68,10,29.25234,33.14701658,130.1887668,124.575
84.3,130.188735,33.147037,0.15,72.38,-7,14,70,10,28.687481,33.14700712,130.1887721,113.25
84.45,130.188751,33.146999,0.15,71.13,-6,13,76,10,28.14114,33.14699819,130.188778,92.865
84.6,130.188751,33.146999,0.15,71.13,-6,13,76,10,27.891121,33.14698948,130.1887838,77.01
84.75,130.188735,33.146984,0.15,71.13,-3,14,83,10,27.24292,33.14698106,130.1887899,54.36
84.9,130.188735,33.146984,0.15,70.13,0,17,86,10,26.502119,33.14697267,130.1887961,45.3
85.05,130.188735,33.146949,0.15,70.13,5,25,90,10,26.6688005,33.14696464,130.1888027,33.975
85.2,130.188735,33.146949,0.15,70.13,5,25,90,10,25.927999,33.14695688,130.188809,22.65
85.35,130.18872,33.14693,0.15,67.44,11,25,93,10,25.1409005,33.14694919,130.1888152,18.12
85.5,130.18872,33.14693,0.15,67.44,15,25,92,10,24.55752,33.146942,130.1888214,22.65
85.65,130.18872,33.146903,0.15,66,21,28,91,10,23.5944795,33.14693538,130.1888277,49.83
85.8,130.18872,33.146903,0.15,66,21,28,91,10,23.613001,33.1469292,130.1888348,67.95
85.95,130.18872,33.146903,0.15,66,30,26,90,10,23.22408,33.14692359,130.1888423,67.95
86.1,130.18872,33.146873,0.15,64.75,35,23,87,10,22.427719,33.14691833,130.1888499,67.95
86.25,130.18872,33.146873,0.15,64.75,44,18,77,10,21.6683995,33.14691386,130.1888577,74.745
86.4,130.18872,33.146873,0.15,64.75,44,18,77,10,20.96464,33.14690972,130.1888656,67.95
86.55,130.188735,33.146835,0.15,65.32,52,11,66,10,20.6127595,33.14690572,130.1888734,74.745
86.7,130.188735,33.146835,0.15,65.32,56,3,53,10,19.760839,33.14690207,130.1888811,77.01
86.85,130.188751,33.146804,0.15,66.88,55,0,45,10,19.0200395,33.14689898,130.1888887,65.685
87,130.188751,33.146804,0.15,66.88,55,0,45,10,18.20516,33.1468966,130.1888963,54.36
87.15,130.188766,33.146797,0.15,66.88,52,-4,30,10,17.7236395,33.1468948,130.1889037,63.42
87.3,130.188766,33.146797,0.15,67.57,46,-3,15,10,16.40872,33.1468937,130.1889107,67.95
87.45,130.188796,33.146785,0.15,67.57,44,0,10,10,16.7791205,33.14689339,130.1889175,92.865
87.6,130.188796,33.146785,0.15,67.57,44,0,10,10,16.4828,33.14689312,130.1889241,108.72
87.75,130.188796,33.146785,0.15,67.57,42,3,7,10,15.6957005,33.14689316,130.1889304,140.43
87.9,130.188796,33.146785,0.15,68,38,12,4,10,15.01972,33.14689377,130.1889362,163.08
88.05,130.188842,33.146778,0.15,67.07,36,18,8,10,13.6122,33.14689538,130.1889415,190.26
88.2,130.188842,33.146778,0.15,67.07,36,18,8,10,13.46404,33.14689738,130.1889464,203.85
88.35,130.188842,33.146778,0.15,67.07,36,14,21,10,13.11216,33.14689962,130.1889507,154.02
88.5,130.188842,33.146778,0.15,66.32,37,13,23,10,12.83436,33.1469026,130.1889548,104.19
88.65,130.188842,33.146778,0.15,66.32,39,13,23,10,12.07504,33.14690573,130.1889581,99.66
88.8,130.188842,33.146766,0.15,66.32,39,13,19,10,11.50092,33.1469091,130.1889607,99.66
88.95,130.188888,33.146766,0.15,66.63,42,14,12,10,10.79716,33.14691248,130.1889639,90.6
89.1,130.188919,33.146762,0.15,66.63,43,14,6,10,10.53788,33.14691603,130.1889669,81.54
89.25,130.188934,33.146762,0.15,66.19,44,12,-2,10,10.65826,33.14692093,130.1889695,70.215
89.4,130.188934,33.146762,0.15,66.19,44,12,-2,10,10.63048,33.14692625,130.1889719,63.42
89.55,130.188934,33.146762,0.15,66.19,47,13,-14,10,11.27868,33.14693179,130.1889736,63.42
89.7,130.188964,33.146766,0.15,65.88,48,15,-19,10,11.50092,33.1469369,130.1889752,58.89
89.85,130.18898,33.14677,0.15,65.88,50,17,-28,10,11.17682,33.14694142,130.1889764,56.625
90,130.18898,33.14677,0.15,65.88,50,17,-28,10,11.2046,33.14694578,130.1889774,63.42
90.15,130.18898,33.14677,0.15,63.82,53,16,-36,10,11.54722,33.14695085,130.1889778,90.6
90.3,130.18901,33.146781,0.15,63.82,55,15,-42,10,12.3158,33.14695578,130.1889779,113.25
90.45,130.18901,33.146781,0.15,61.63,59,3,-42,10,12.66768,33.14696009,130.1889771,117.78
90.6,130.18901,33.146781,0.15,61.63,59,3,-57,10,13.7048,33.1469645,130.1889762,104.19
90.75,130.189041,33.146808,0.15,61.63,57,-16,-77,10,13.91778,33.14696936,130.1889748,70.215
90.9,130.189041,33.146808,0.15,62.63,54,-25,-91,10,14.11224,33.14697447,130.1889735,45.3
91.05,130.189086,33.146839,0.15,62.63,55,-22,-94,10,14.51968,33.14697968,130.1889723,38.505
91.2,130.189086,33.146839,0.15,62.63,55,-22,-94,10,14.31596,33.14698488,130.1889704,22.65
91.35,130.189086,33.146862,0.15,63.63,57,-15,-94,10,15.50124,33.14699021,130.1889683,18.12
91.5,130.189086,33.146862,0.15,63.63,56,-11,-96,10,16.575399,33.14699597,130.1889658,18.12
91.65,130.189086,33.146903,0.15,63.69,54,-11,-98,10,17.35324,33.14700183,130.1889626,13.59
91.8,130.189086,33.146903,0.15,63.69,54,-11,-98,10,18.149599,33.14700775,130.1889587,18.12
91.95,130.189086,33.146903,0.15,63.69,48,-7,-104,10,18.69594,33.14701405,130.1889541,18.12
92.1,130.189086,33.146903,0.15,64.5,46,1,-105,10,19.520081,33.14702057,130.1889487,22.65
92.25,130.189056,33.146961,0.15,64.5,45,5,-104,9,19.9089995,33.14702719,130.188943,33.975
92.4,130.189056,33.146961,0.15,64.5,45,5,-104,9,20.927601,33.14703402,130.1889368,40.77
92.55,130.189056,33.146961,0.15,64.25,45,15,-100,9,21.79804,33.14704099,130.1889303,52.095
92.7,130.189041,33.146995,0.15,64.25,45,20,-96,10,22.131399,33.14704815,130.1889235,58.89
92.85,130.189041,33.146995,0.15,62.69,48,24,-91,10,23.22408,33.14705554,130.1889167,67.95
93,130.189041,33.146995,0.15,62.69,48,24,-91,10,23.94636,33.14706317,130.18891,72.48
93.15,130.189025,33.147033,0.15,62.69,52,20,-95,10,24.6038195,33.14707098,130.1889031,86.07
93.3,130.18901,33.147048,0.15,62.82,55,13,-105,10,25.409439,33.14707897,130.1888958,95.13
93.45,130.18901,33.147048,0.15,62.82,55,12,-108,10,26.0206005,33.1470871,130.188888,99.66
93.6,130.18901,33.147048,0.15,62.82,55,12,-108,10,26.409519,33.14709522,130.1888798,95.13
93.75,130.188995,33.147079,0.15,62.57,52,11,-116,10,27.113279,33.14710345,130.1888718,97.395
93.9,130.188995,33.147079,0.15,62.57,48,17,-118,10,27.42812,33.14711185,130.1888637,95.13
94.05,130.188964,33.147094,0.15,62.63,46,20,-117,10,28.45598,33.14712048,130.1888556,101.925
94.2,130.188964,33.147094,0.15,62.63,46,20,-117,10,28.705999,33.14712927,130.1888475,113.25
94.35,130.188964,33.147094,0.15,62.63,43,29,-110,10,29.502359,33.14713823,130.188839,133.635
94.5,130.188949,33.147117,0.15,62.38,40,33,-100,10,30.261681,33.14714732,130.1888305,163.08
94.65,130.188949,33.147125,0.15,62.38,38,34,-94,10,30.9747,33.1471565,130.1888219,163.08
94.8,130.188949,33.147125,0.15,62.38,38,34,-94,10,31.465481,33.14716592,130.1888135,131.37
94.95,130.188949,33.147125,0.15,61.57,37,35,-85,10,31.72476,33.1471756,130.1888053,113.25
95.1,130.188934,33.147144,0.15,61.57,39,35,-81,10,32.335918,33.1471856,130.1887972,117.78
95.25,130.188934,33.147144,0.15,61.38,41,34,-81,10,32.7896595,33.14719578,130.1887891,90.6
95.4,130.188934,33.147167,0.15,61.38,41,34,-81,10,33.576759,33.1472061,130.1887808,72.48
95.55,130.188919,33.147167,0.15,61.38,46,29,-84,10,34.20644,33.14721683,130.1887726,67.95
95.7,130.188919,33.147167,0.15,58.88,52,18,-91,10,34.447201,33.14722753,130.1887645,49.83
95.85,130.188888,33.14719,0.15,58.88,54,9,-98,9,34.7342585,33.14723856,130.1887564,49.83
96,130.188888,33.147205,0.15,58.88,54,9,-98,9,34.78056,33.14724968,130.1887482,72.48
96.15,130.188888,33.147205,0.15,58.07,53,-9,-112,10,35.456539,33.14726081,130.1887394,79.275
96.3,130.188888,33.147205,0.15,58.07,50,-16,-121,10,35.632481,33.14727205,130.1887308,45.3
96.45,130.188873,33.147232,0.15,58.94,48,-17,-124,10,36.2066005,33.14728345,130.1887217,61.155
96.6,130.188873,33.147232,0.15,58.94,48,-17,-124,10,36.336239,33.14729512,130.188713,31.71
96.75,130.188873,33.147232,0.15,58.94,44,-17,-128,10,36.5214405,33.14730693,130.1887043,24.915
96.9,130.188842,33.147258,0.15,59.94,40,-19,-132,10,36.632561,33.14731887,130.1886956,54.36
97.05,130.188827,33.14727,0.15,59.94,37,-20,-134,10,36.9659215,33.14733077,130.1886867,56.625
97.2,130.188827,33.14727,0.15,59.94,37,-20,-134,10,37.725239,33.14734285,130.1886775,67.95
97.35,130.188812,33.147289,0.15,62.75,32,-21,-138,10,37.8548795,33.14735508,130.1886687,79.275
97.5,130.188781,33.1473,0.15,62.75,29,-15,-140,10,37.817841,33.1473675,130.1886597,99.66
97.65,130.188781,33.1473,0.15,62.75,27,-12,-141,10,37.4567015,33.1473799,130.188651,77.01
97.8,130.188781,33.147323,0.15,62.75,27,-12,-141,10,37.077042,33.14739222,130.1886421,77.01
97.95,130.188751,33.147323,0.15,64.88,21,-6,-141,10,36.743679,33.14740407,130.188633,72.48
98.1,130.188751,33.147323,0.15,66.19,18,1,-138,10,36.262161,33.14741595,130.188624,90.6
98.25,130.188705,33.147346,0.15,66.19,16,4,-137,10,36.5121805,33.14742813,130.1886156,156.285
98.4,130.188705,33.147346,0.15,66.19,16,4,-137,10,35.78064,33.1474401,130.1886077,208.38
98.55,130.188705,33.147346,0.15,66.5,13,6,-134,10,35.854721,33.14745207,130.1886,147.225
98.7,130.188674,33.147369,0.15,66.5,9,4,-134,10,35.095402,33.1474637,130.188592,90.6
98.85,130.188659,33.14738,0.15,67.88,6,5,-135,10,34.7250005,33.14747463,130.1885838,81.54
99,130.188659,33.147392,0.15,67.88,6,5,-135,10,35.762119,33.14748582,130.1885752,49.83
99.15,130.188644,33.147392,0.15,67.88,4,9,-136,10,35.2435605,33.14749698,130.1885668,70.215
99.3,130.188644,33.147392,0.15,68.13,1,11,-134,10,36.262161,33.14750852,130.1885584,77.01
99.45,130.188598,33.147411,0.15,68.13,0,11,-134,10,35.0676215,33.14752018,130.1885496,83.805
99.6,130.188598,33.147411,0.15,68.13,0,11,-134,10,34.79908,33.14753142,130.1885408,90.6
99.75,130.188598,33.147411,0.15,68.88,-2,7,-132,10,34.965759,33.14754273,130.188532,83.805
99.9,130.188568,33.147434,0.15,68.88,-5,6,-131,10,35.150959,33.14755422,130.1885231,72.48
