time,long,lat,dt,H,Roll,pitch,yaw,S,truckSpeed,truck_Lat,truck_long,Tension
0,130.188537,33.147422,0.15,67.75,1,-62,-127,10,0,33.147633,130.18846,0
0.15,130.188537,33.147422,0.15,67.75,1,-62,-127,10,0.12038,33.1476334,130.1884623,-4.53
0.3,130.188537,33.147422,0.15,68.32,0,-59,-125,10,0.1852,33.14763333,130.1884622,-4.53
0.45,130.188537,33.147422,0.15,68.32,0,-51,-122,10,0.11112,33.1476333,130.1884622,-6.795
0.6,130.188537,33.147422,0.15,68.32,-1,-32,-115,10,0.0926,33.14763325,130.1884622,-4.53
0.75,130.188537,33.147422,0.15,68.32,-1,-32,-115,10,0.07408,33.1476332,130.1884622,-4.53
0.9,130.188537,33.147422,0.15,68.38,-2,-29,-114,10,0.0926,33.1476332,130.1884622,-4.53
1.05,130.188522,33.147441,0.15,68.38,-5,-28,-113,10,0.16668,33.1476332,130.1884622,-4.53
1.2,130.188522,33.147449,0.15,68.25,0,-37,-115,10,0.29632,33.14763313,130.1884621,-4.53
1.35,130.188522,33.147449,0.15,68.25,0,-37,-115,10,0.50004,33.14763317,130.188462,-4.53
1.5,130.188522,33.147449,0.15,68.25,-2,-46,-118,10,0.8334,33.14763338,130.1884618,-4.53
1.65,130.188522,33.147449,0.15,68.25,-1,-44,-117,10,1.41678,33.1476342,130.1884613,-4.53
1.8,130.188522,33.147449,0.15,68.19,0,-40,-115,10,2.01868,33.14763535,130.1884605,-4.53
1.95,130.188507,33.147468,0.15,68.19,0,-40,-115,10,3.02802,33.1476368,130.1884597,-4.53
2.1,130.188507,33.147468,0.15,68.19,0,-39,-114,10,4.66704,33.14763838,130.1884588,-4.53
2.25,130.188507,33.147476,0.15,68.25,1,-41,-114,10,5.80602,33.1476404,130.1884576,-4.53
2.4,130.188491,33.147483,0.15,68.25,3,-42,-114,10,6.96352,33.14764277,130.1884562,-4.53
2.55,130.188491,33.147487,0.15,68.25,3,-42,-114,10,7.61172,33.14764541,130.1884544,-4.53
2.7,130.188491,33.147487,0.15,68.32,6,-41,-113,10,8.18584,33.14764827,130.1884526,-4.53
2.85,130.188491,33.147495,0.15,68.32,6,-40,-113,10,9.0748,33.14765141,130.1884507,-4.53
3,130.188491,33.147502,0.15,68.63,8,-38,-111,10,10.29712,33.14765482,130.1884485,-4.53
3.15,130.188476,33.14751,0.15,68.63,8,-38,-111,10,11.03792,33.14765856,130.1884464,-4.53
3.3,130.188476,33.14751,0.15,68.63,12,-39,-110,10,11.61204,33.14766247,130.1884441,-4.53
3.45,130.188476,33.147521,0.15,68.38,15,-39,-109,10,11.84354,33.14766652,130.1884418,-4.53
3.6,130.188476,33.147529,0.15,68.38,23,-43,-107,10,12.38988,33.1476707,130.1884394,-4.53
3.75,130.188476,33.147541,0.15,68.38,23,-43,-107,10,12.93622,33.14767505,130.1884368,-4.53
3.9,130.188476,33.147541,0.15,68.5,30,-48,-107,10,13.13068,33.14767952,130.1884342,-4.53
4.05,130.188461,33.147556,0.15,68.5,33,-47,-106,10,13.9363,33.14768418,130.1884314,-4.53
4.2,130.188461,33.147571,0.15,69.82,35,-46,-106,10,14.27892,33.14768898,130.1884285,-4.53
4.35,130.188461,33.147586,0.15,69.82,35,-46,-106,10,15.07528,33.14769387,130.1884254,0
4.5,130.188461,33.147586,0.15,69.82,37,-39,-103,10,15.24196,33.14769888,130.1884222,0
4.65,130.188461,33.147605,0.15,71.69,36,-44,-108,10,15.76052,33.14770386,130.1884189,0
4.8,130.188461,33.147605,0.15,71.69,27,-44,-117,10,16.22352,33.14770902,130.1884155,4.53
4.95,130.188461,33.147605,0.15,71.69,27,-44,-117,10,16.90876,33.14771465,130.1884119,9.06
5.1,130.188461,33.147605,0.15,76.75,20,-41,-125,10,17.20508,33.14772048,130.1884084,40.77
5.25,130.18843,33.14767,0.15,76.75,18,-36,-127,9,17.7606805,33.14772652,130.1884047,113.25
5.4,130.18843,33.14767,0.15,76.75,9,-27,-130,9,18.668159,33.14773265,130.1884007,140.43
5.55,130.18843,33.147697,0.15,76.75,9,-27,-130,9,18.86262,33.14773894,130.1883965,167.61
5.7,130.188385,33.147697,0.15,79,1,-24,-132,10,19.87196,33.14774557,130.188392,167.61
5.85,130.188354,33.147716,0.15,81.25,-1,-20,-129,10,20.4275595,33.14775255,130.1883872,144.96
6,130.188339,33.147735,0.15,81.25,-5,-12,-120,10,21.131321,33.14775973,130.1883823,104.19
6.15,130.188339,33.147754,0.15,81.25,-5,-12,-120,10,21.72396,33.14776724,130.1883774,231.03
6.3,130.188323,33.147754,0.15,82.69,-10,-6,-110,10,22.316601,33.14777492,130.1883724,131.37
6.45,130.188308,33.147781,0.15,82.69,-11,-3,-105,10,23.029619,33.14778259,130.1883671,131.37
6.6,130.188308,33.147804,0.15,83.88,-13,4,-94,10,23.68708,33.14779012,130.1883616,131.37
6.75,130.188308,33.147827,0.15,83.88,-13,4,-94,10,23.8908005,33.14779769,130.1883561,129.105
6.9,130.188308,33.147827,0.15,83.88,-11,12,-82,10,24.65012,33.14780533,130.1883501,113.25
7.05,130.188308,33.147846,0.15,83.69,-8,16,-77,10,25.2520195,33.14781341,130.1883442,99.66
7.2,130.188308,33.147869,0.15,83.69,-1,21,-69,10,25.816879,33.14782175,130.1883381,95.13
7.35,130.188308,33.147884,0.15,83.69,-1,21,-69,10,26.2706205,33.14783003,130.1883316,81.54
7.5,130.188308,33.147884,0.15,81.82,7,24,-66,10,26.983641,33.14783847,130.1883254,49.83
7.65,130.188308,33.147903,0.15,81.82,12,25,-66,10,27.3447795,33.14784715,130.1883192,45.3
7.8,130.188308,33.147918,0.15,80.07,21,22,-72,10,28.03928,33.14785598,130.1883131,45.3
7.95,130.188308,33.147937,0.15,80.07,21,22,-72,10,28.6226595,33.14786485,130.1883066,43.035
8.1,130.188308,33.147937,0.15,80.07,31,20,-80,10,29.33568,33.14787407,130.1883,45.3
8.25,130.188308,33.147956,0.15,79.69,35,19,-84,10,29.88202,33.14788393,130.1882935,67.95
8.4,130.188308,33.147972,0.15,79.69,39,13,-93,10,30.502439,33.14789392,130.1882869,77.01
8.55,130.188308,33.147991,0.15,79.69,39,13,-93,10,31.1876805,33.14790381,130.18828,88.335
8.7,130.188293,33.147991,0.15,78.88,43,7,-103,10,31.761801,33.14791372,130.1882731,86.07
8.85,130.188278,33.14801,0.15,78.88,43,3,-108,10,32.3451805,33.14792379,130.1882659,88.335
9,130.188262,33.148029,0.15,79.5,41,-1,-118,10,33.03968,33.14793437,130.1882585,90.6
9.15,130.188262,33.148044,0.15,79.5,41,-1,-118,10,33.697142,33.14794525,130.1882511,97.395
9.3,130.188247,33.148044,0.15,79.5,36,-5,-126,10,34.317558,33.14795635,130.1882435,99.66
9.45,130.188247,33.148044,0.15,79.5,33,-6,-129,10,34.660181,33.14796773,130.1882357,90.6
9.6,130.188201,33.148067,0.15,79.75,27,-7,-135,10,35.280602,33.14797912,130.1882277,81.54
9.75,130.188201,33.148082,0.15,79.75,27,-7,-135,10,35.947321,33.14799078,130.1882194,81.54
9.9,130.188186,33.148082,0.15,80.63,22,-9,-138,10,36.577,33.14800257,130.188211,81.54
10.05,130.188171,33.14809,0.15,80.63,20,-13,-140,10,37.1603795,33.14801438,130.1882024,83.805
10.2,130.18814,33.148101,0.15,82.57,12,-16,-148,10,37.743759,33.14802635,130.1881935,95.13
10.35,130.18814,33.148113,0.15,82.57,12,-16,-148,10,38.39196,33.14803854,130.1881845,101.925
10.5,130.18811,33.148113,0.15,82.57,4,-12,-154,10,38.947559,33.14805102,130.1881752,131.37
10.65,130.18811,33.148113,0.15,82.57,0,-9,-156,10,39.4661195,33.14806377,130.1881658,156.285
10.8,130.188034,33.148128,0.15,83.57,-8,-7,-156,10,40.114319,33.14807683,130.1881564,167.61
10.95,130.188034,33.148136,0.15,83.57,-8,-7,-156,10,40.725479,33.14809014,130.1881469,158.55
11.1,130.188003,33.148136,0.15,83.25,-20,-3,-153,10,41.336639,33.14810332,130.1881374,154.02
11.25,130.187957,33.148151,0.15,83.25,-26,0,-150,10,41.920021,33.14811663,130.1881277,156.285
11.4,130.187927,33.148162,0.15,82,-38,3,-139,10,42.33672,33.1481304,130.1881179,172.14
11.55,130.187927,33.148185,0.15,82,-38,3,-139,10,42.95714,33.14814452,130.1881082,174.405
11.7,130.187881,33.148185,0.15,82,-49,7,-125,10,43.55904,33.14815865,130.1880981,194.79
11.85,130.187866,33.148208,0.15,80.88,-52,7,-118,10,44.0775985,33.14817286,130.188088,199.32
12,130.187835,33.148231,0.15,80.88,-54,6,-107,10,44.781361,33.14818717,130.1880777,199.32
12.15,130.187835,33.148258,0.15,80.88,-54,6,-107,10,45.179539,33.14820167,130.1880673,197.055
12.3,130.18782,33.148258,0.15,81.63,-52,2,-98,10,45.5592,33.14821633,130.1880563,203.85
12.45,130.18782,33.148284,0.15,81.63,-50,0,-94,10,45.5592,33.14823103,130.1880455,190.26
12.6,130.18782,33.148303,0.15,82.19,-42,-9,-81,10,45.503639,33.14824585,130.1880348,158.55
12.75,130.18782,33.148323,0.15,82.19,-42,-9,-81,10,45.3740005,33.14826063,130.1880239,124.575
12.9,130.187835,33.148323,0.15,82.19,-30,-16,-67,10,44.596161,33.14827588,130.1880133,99.66
13.05,130.187835,33.148342,0.15,83.75,-24,-16,-61,10,45.1054595,33.14829105,130.1880021,117.78
13.2,130.187866,33.148368,0.15,83.75,-9,-15,-54,10,45.15176,33.14830588,130.1879908,131.37
13.35,130.187866,33.148368,0.15,83.75,-9,-15,-54,10,45.24436,33.14832053,130.1879795,147.225
13.5,130.187866,33.148368,0.15,81.25,7,-18,-52,10,45.33696,33.14833538,130.1879681,163.08
13.65,130.187896,33.148414,0.15,81.25,17,-22,-54,10,45.54068,33.14835023,130.1879565,187.995
13.8,130.187927,33.148452,0.15,81.88,12,-28,-68,10,45.799961,33.14836517,130.1879448,217.44
13.95,130.187927,33.148494,0.15,81.88,12,-28,-68,10,46.1703605,33.14838008,130.1879329,246.885
14.1,130.187942,33.148494,0.15,81.88,2,-18,-85,10,46.244438,33.14839487,130.1879212,330.69
14.25,130.187942,33.148536,0.15,80.57,3,-12,-94,9,46.4111195,33.14840971,130.1879095,491.505
14.4,130.187896,33.148574,0.15,80.57,12,2,-107,10,46.485199,33.14842452,130.1878979,579.84
14.55,130.187896,33.148597,0.15,80.57,12,2,-107,10,46.985241,33.14843948,130.1878861,530.01
14.7,130.187866,33.148597,0.15,80.13,18,7,-118,10,47.207481,33.14845457,130.1878742,543.6
14.85,130.187866,33.148597,0.15,80.13,20,7,-124,10,47.3649005,33.14846967,130.1878625,310.305
15,130.187866,33.148597,0.15,82.13,18,3,-136,10,47.485279,33.1484849,130.1878508,212.91
15.15,130.187866,33.148616,0.15,82.13,18,3,-136,10,47.93902,33.14849998,130.1878388,185.73
15.3,130.187774,33.148616,0.15,82.13,10,-4,-150,10,47.800121,33.14851477,130.1878268,158.55
15.45,130.187744,33.148616,0.15,87.38,3,-5,-156,10,48.077919,33.14852993,130.1878148,133.635
15.6,130.187698,33.148616,0.15,87.38,-9,-1,-163,10,47.837158,33.14854497,130.1878022,158.55
15.75,130.187698,33.14862,0.15,87.38,-9,-1,-163,10,48.31868,33.14855995,130.1877895,178.935
15.9,130.187667,33.14862,0.15,86.25,-19,0,-163,10,47.614922,33.14857458,130.1877768,199.32
16.05,130.187622,33.148624,0.15,86.25,-25,-2,-161,10,47.6519605,33.14858963,130.1877644,197.055
16.2,130.187576,33.148639,0.15,82.69,-35,-2,-145,10,48.059399,33.14860488,130.1877521,176.67
16.35,130.187576,33.148658,0.15,82.69,-35,-2,-145,10,47.93902,33.14862013,130.1877398,212.91
16.5,130.18753,33.148658,0.15,82.69,-40,4,-122,10,48.263119,33.14863578,130.1877274,271.8
16.65,130.187484,33.148685,0.15,80,-45,8,-113,10,48.179781,33.14865187,130.1877154,366.93
16.8,130.187454,33.148712,0.15,80,-49,14,-104,10,48.263119,33.14866798,130.1877036,389.58
16.95,130.187454,33.148742,0.15,80,-49,14,-104,10,48.3372,33.14868398,130.1876918,378.255
17.1,130.187454,33.148742,0.15,80.82,-50,12,-96,10,48.448318,33.14870023,130.1876802,303.51
17.25,130.187454,33.148769,0.15,80.82,-48,8,-92,10,48.53166,33.14871651,130.1876689,210.645
17.4,130.187469,33.148788,0.15,80.44,-41,-3,-79,10,48.022362,33.14873243,130.1876576,154.02
17.55,130.187469,33.148807,0.15,80.44,-41,-3,-79,10,48.068661,33.14874836,130.1876466,113.25
17.7,130.187469,33.148807,0.15,80.44,-30,-13,-64,10,47.596401,33.148764,130.1876356,104.19
17.85,130.187484,33.14883,0.15,84,-23,-16,-57,10,47.5593605,33.14877955,130.1876248,117.78
18,130.187484,33.14883,0.15,84,-9,-13,-50,10,47.559361,33.14879507,130.187614,140.43
18.15,130.187484,33.14883,0.15,84,-9,-13,-50,10,47.383419,33.14881026,130.1876031,163.08
18.3,130.187484,33.14883,0.15,84,-2,-12,-49,10,47.226002,33.14882535,130.1875922,212.91
18.45,130.187484,33.14883,0.15,83.57,11,-22,-51,10,47.1148795,33.14884035,130.1875816,231.03
18.6,130.187484,33.14883,0.15,83.57,13,-20,-56,10,47.077839,33.14885533,130.1875712,212.91
18.75,130.187484,33.14883,0.15,83,17,-20,-64,10,47.087099,33.14887042,130.1875611,258.21
18.9,130.187484,33.14883,0.15,83,12,-8,-81,10,47.15192,33.14888557,130.1875509,394.11
19.05,130.18753,33.14904,0.15,82.25,15,-5,-90,10,47.170441,33.14890076,130.1875406,441.675
19.2,130.1875,33.149066,0.15,82.25,21,5,-102,10,47.485279,33.14891595,130.1875305,489.24
19.35,130.1875,33.149078,0.15,82.25,21,5,-102,10,47.1982215,33.14893115,130.1875203,407.7
19.5,130.187469,33.149078,0.15,82.44,24,6,-113,10,47.596401,33.14894648,130.18751,371.46
19.65,130.187438,33.149089,0.15,82.44,24,7,-117,10,47.5593605,33.14896223,130.1874995,283.125
19.8,130.187408,33.149093,0.15,84,20,7,-127,10,47.503799,33.1489779,130.187489,185.73
19.95,130.187408,33.149097,0.15,84,20,7,-127,10,47.72604,33.14899366,130.1874782,178.935
20.1,130.187377,33.149097,0.15,84,13,3,-137,10,47.35564,33.14900943,130.1874674,167.61
20.25,130.187347,33.149101,0.15,86.07,9,2,-141,10,47.494539,33.14902511,130.1874568,147.225
20.4,130.187316,33.149101,0.15,86.07,0,5,-148,10,47.670479,33.14904085,130.1874463,135.9
20.55,130.187316,33.149105,0.15,86.07,0,5,-148,10,47.34638,33.14905641,130.1874358,156.285
20.7,130.187286,33.149105,0.15,85.13,-10,7,-150,10,47.374161,33.14907208,130.1874253,181.2
20.85,130.18724,33.149112,0.15,85.13,-19,3,-146,10,47.096359,33.14908803,130.1874149,172.14
21,130.187194,33.149124,0.15,83.5,-36,3,-127,10,47.077839,33.1491041,130.1874044,158.55
21.15,130.187194,33.149147,0.15,83.5,-36,3,-127,10,47.12414,33.14912031,130.1873938,197.055
21.3,130.187164,33.149147,0.15,83.5,-43,13,-112,10,47.188961,33.14913638,130.1873833,303.51
21.45,130.187118,33.149173,0.15,80.94,-48,20,-108,10,46.874119,33.14915247,130.1873726,321.63
21.6,130.187103,33.149196,0.15,80.94,-56,29,-104,10,46.9482,33.14916827,130.1873622,366.93
21.75,130.187103,33.149227,0.15,80.94,-56,29,-104,10,47.003761,33.14918404,130.1873516,321.63
21.9,130.187103,33.149227,0.15,80.38,-55,23,-98,10,47.022282,33.14919958,130.187341,221.97
22.05,130.187088,33.149253,0.15,80.38,-56,19,-93,10,47.0130215,33.14921499,130.1873305,158.55
22.2,130.187088,33.149253,0.15,80.38,-53,6,-82,10,46.985241,33.14923045,130.18732,108.72
22.35,130.187088,33.149253,0.15,80.38,-53,6,-82,10,46.985241,33.14924596,130.1873095,95.13
22.5,130.187088,33.149253,0.15,80.57,-48,-2,-74,10,46.966721,33.14926138,130.1872989,117.78
22.65,130.187088,33.149253,0.15,80.57,-35,-16,-54,10,46.84634,33.14927687,130.1872882,95.13
22.8,130.187088,33.149253,0.15,84.19,-22,-17,-41,10,46.429642,33.14929245,130.1872775,108.72
22.95,130.187088,33.149253,0.15,84.19,-22,-17,-41,10,46.3740785,33.14930767,130.187267,156.285
23.1,130.187088,33.149253,0.15,84.44,-1,-6,-36,10,46.35556,33.14932267,130.1872563,181.2
23.25,130.187088,33.149253,0.15,84.44,5,-5,-38,10,46.2814805,33.14933763,130.1872458,217.44
23.4,130.187179,33.149421,0.15,81.94,11,-2,-38,10,46.244438,33.14935245,130.1872355,212.91
23.55,130.187179,33.149456,0.15,81.94,11,-2,-41,10,46.2537005,33.14936744,130.1872254,126.84
23.7,130.187179,33.149456,0.15,81.94,20,-11,-52,10,46.225922,33.14938215,130.1872152,131.37
23.85,130.187194,33.14949,0.15,81.32,18,-12,-62,10,46.2536985,33.1493969,130.1872051,201.585
24,130.187179,33.149528,0.15,81.32,16,-5,-82,10,46.299999,33.14941162,130.1871951,194.79
24.15,130.187179,33.149562,0.15,81.32,16,-5,-82,10,46.3463005,33.14942631,130.1871852,317.1
24.3,130.187179,33.149562,0.15,81.63,19,2,-98,10,46.411121,33.14944107,130.1871752,380.52
24.45,130.187149,33.149578,0.15,81.63,22,4,-104,10,46.494459,33.14945575,130.1871651,355.605
24.6,130.187118,33.149593,0.15,82.5,21,4,-115,10,46.54076,33.1494705,130.1871549,317.1
24.75,130.187118,33.149597,0.15,82.5,21,4,-115,10,46.54076,33.14948513,130.1871446,235.56
24.9,130.187088,33.149597,0.15,82.5,20,2,-125,10,46.577801,33.14950002,130.1871343,154.02
25.05,130.187057,33.149604,0.15,84.19,16,0,-131,10,46.494459,33.14951524,130.1871239,110.985
25.2,130.187026,33.149604,0.15,84.19,5,0,-142,10,46.040722,33.14953038,130.1871136,108.72
25.35,130.187026,33.149608,0.15,84.19,5,0,-142,10,46.1333195,33.14954532,130.1871033,117.78
25.5,130.186996,33.149608,0.15,84.07,-5,6,-146,10,45.799961,33.14956012,130.187093,122.31
25.65,130.186965,33.149608,0.15,84.07,-13,1,-145,10,45.53142,33.14957498,130.1870829,144.96
25.8,130.186965,33.149608,0.15,84.07,-22,-5,-133,10,44.688759,33.14958975,130.1870728,131.37
25.95,130.186965,33.149608,0.15,84.07,-22,-5,-133,10,44.65172,33.14960489,130.1870629,104.19
26.1,130.186965,33.149608,0.15,83.19,-27,-1,-123,10,44.299839,33.14961982,130.187053,167.61
26.25,130.186965,33.149608,0.15,83.19,-37,7,-106,10,43.9942605,33.14963484,130.1870431,280.86
26.4,130.186965,33.149608,0.15,83.38,-46,15,-96,10,43.429401,33.14964968,130.1870333,317.1
26.55,130.186965,33.149608,0.15,83.38,-46,15,-96,10,43.2719805,33.14966401,130.1870235,269.535
26.7,130.186965,33.149608,0.15,83.25,-45,24,-94,10,43.13308,33.14967813,130.1870138,212.91
26.85,130.186965,33.149608,0.15,83.25,-42,26,-90,10,42.8738005,33.14969228,130.1870041,178.935
27,130.186965,33.149608,0.15,82.5,-39,24,-87,10,42.688599,33.14970627,130.1869943,126.84
27.15,130.186965,33.149608,0.15,82.5,-39,24,-87,10,42.2070805,33.14972011,130.1869845,72.48
27.3,130.186965,33.149608,0.15,82.5,-35,14,-79,10,42.132999,33.14973388,130.1869747,49.83
27.45,130.186965,33.149608,0.15,82.5,-33,11,-73,10,42.0403995,33.14974775,130.1869651,43.035
27.6,130.186813,33.149818,0.15,83.57,-26,11,-64,10,41.632961,33.14976162,130.1869556,54.36
27.75,130.186813,33.149837,0.15,83.57,-26,11,-64,10,41.327379,33.14977513,130.186946,86.07
27.9,130.186828,33.149837,0.15,83.5,-20,10,-56,10,41.207001,33.14978837,130.1869365,104.19
28.05,130.186828,33.149856,0.15,83.5,-17,8,-53,10,40.919941,33.14980147,130.1869274,79.275
28.2,130.186843,33.149875,0.15,83.94,-10,8,-45,10,40.706959,33.14981447,130.1869187,67.95
28.35,130.186843,33.149894,0.15,83.94,-10,8,-45,10,40.429161,33.14982754,130.18691,65.685
28.5,130.186843,33.149894,0.15,83.94,-1,13,-40,10,40.280998,33.14984053,130.1869016,90.6
28.65,130.186859,33.149913,0.15,82.82,8,15,-41,10,40.1976605,33.14985322,130.1868932,106.455
28.8,130.186859,33.149936,0.15,82.82,14,15,-44,10,39.892078,33.14986587,130.186885,90.6
28.95,130.186859,33.149951,0.15,82.82,14,15,-44,10,39.7716995,33.14987834,130.1868771,88.335
29.1,130.186859,33.149951,0.15,82.38,23,13,-53,10,39.614281,33.14989083,130.1868698,67.95
29.25,130.186859,33.149974,0.15,82.38,27,11,-60,10,39.47538,33.14990319,130.1868627,90.6
29.4,130.186859,33.149974,0.15,82.38,32,9,-75,10,39.336479,33.14991542,130.1868559,108.72
29.55,130.186859,33.149974,0.15,82.38,32,9,-75,10,38.725319,33.14992762,130.186849,106.455
29.7,130.186859,33.149974,0.15,82.32,32,9,-80,10,38.669762,33.14994012,130.1868425,122.31
29.85,130.186843,33.150035,0.15,82,27,9,-90,10,38.3827,33.14995274,130.1868365,113.25
30,130.186843,33.150035,0.15,82,25,9,-92,10,37.79932,33.14996523,130.1868306,90.6
30.15,130.186843,33.150035,0.15,82,25,9,-92,10,37.447439,33.14997781,130.186825,65.685
30.3,130.186843,33.150035,0.15,82.07,20,11,-90,10,37.114079,33.14999047,130.1868196,54.36
30.45,130.186843,33.150035,0.15,82.07,18,12,-86,10,36.7251585,33.15000282,130.1868144,29.445
30.6,130.186843,33.150035,0.15,82,17,11,-83,10,36.558479,33.15001513,130.1868093,40.77
30.75,130.186843,33.150035,0.15,82,17,11,-83,10,35.8454605,33.15002718,130.1868046,40.77
30.9,130.186843,33.150035,0.15,82,17,13,-75,10,35.39172,33.15003932,130.1868001,54.36
31.05,130.186843,33.150035,0.15,82,18,14,-74,10,34.8731595,33.15005132,130.1867957,33.975
31.2,130.186843,33.150035,0.15,82.07,18,15,-75,10,34.447201,33.15006352,130.1867914,49.83
31.35,130.186843,33.150035,0.15,82.07,18,15,-75,10,33.752699,33.15007571,130.1867872,33.975
31.5,130.186798,33.150161,0.15,82.07,19,14,-78,10,33.058201,33.15008775,130.1867832,49.83
31.65,130.186798,33.150173,0.15,82.07,19,14,-80,10,32.8915195,33.15009973,130.1867795,29.445
31.8,130.186782,33.150188,0.15,81.75,20,14,-80,10,32.391479,33.1501116,130.1867758,27.18
31.95,130.186782,33.150199,0.15,81.75,20,14,-81,10,31.6599395,33.15012303,130.186772,20.385
32.1,130.186782,33.150199,0.15,81.75,20,17,-81,10,31.483999,33.15013442,130.1867681,13.59
32.25,130.186782,33.150215,0.15,81.32,21,20,-79,10,30.4005795,33.15014553,130.1867643,11.325
32.4,130.186782,33.15023,0.15,81.32,22,22,-77,10,29.872761,33.15015653,130.1867602,18.12
32.55,130.186782,33.150249,0.15,81.32,22,22,-77,10,28.7245195,33.150167,130.1867559,2.265
32.7,130.186782,33.150249,0.15,80.44,23,26,-73,10,28.576361,33.15017703,130.1867514,9.06
32.85,130.186767,33.15026,0.15,80.44,26,27,-69,10,27.4003405,33.15018698,130.1867469,9.06
33,130.186767,33.150276,0.15,78.44,28,26,-70,10,27.002159,33.1501964,130.1867421,9.06
33.15,130.186767,33.150287,0.15,78.44,28,26,-70,10,26.1780205,33.15020522,130.1867371,6.795
33.3,130.186752,33.150287,0.15,78.44,35,21,-81,10,25.020519,33.15021378,130.186732,9.06
33.45,130.186752,33.150287,0.15,77.5,44,10,-101,10,24.85384,33.15022208,130.1867266,20.385
33.6,130.186721,33.150314,0.15,77.5,47,3,-110,10,23.77968,33.15023017,130.1867209,36.24
33.75,130.186721,33.150329,0.15,77.5,47,3,-110,10,22.668481,33.15023774,130.1867152,54.36
33.9,130.186706,33.150329,0.15,76.82,48,-10,-127,10,22.18696,33.15024502,130.1867094,72.48
34.05,130.186691,33.150341,0.15,76.82,46,-21,-143,10,21.67766,33.15025198,130.1867033,86.07
34.2,130.186676,33.150348,0.15,76.63,43,-26,-151,10,20.927601,33.15025828,130.1866967,99.66
34.35,130.186676,33.150348,0.15,76.63,43,-26,-151,10,19.9645595,33.15026389,130.1866899,104.19
34.5,130.186676,33.150348,0.15,76.63,37,-32,-171,10,19.334881,33.15026918,130.1866833,113.25
34.65,130.186676,33.150348,0.15,76.63,34,-33,179,10,18.9181795,33.15027377,130.1866765,120.045
34.8,130.186676,33.150348,0.15,77.32,29,-34,163,10,17.927361,33.15027808,130.1866699,131.37
34.95,130.186676,33.150348,0.15,77.32,29,-34,163,10,17.4365795,33.1502821,130.1866634,133.635
35.1,130.186676,33.150348,0.15,82.38,26,-28,149,10,16.575399,33.15028547,130.1866567,140.43
35.25,130.186676,33.150348,0.15,82.38,28,-16,143,10,15.81608,33.15028837,130.18665,176.67
35.4,130.186676,33.150348,0.15,82.38,30,-11,142,10,14.89008,33.15029067,130.1866435,190.26
35.55,130.186676,33.150348,0.15,82.38,30,-11,142,10,13.63072,33.15029213,130.1866377,176.67
35.7,130.186523,33.150291,0.15,82,37,0,141,10,12.6862,33.15029288,130.1866323,144.96
35.85,130.186523,33.150291,0.15,80.88,40,2,138,10,12.06578,33.15029323,130.1866272,99.66
36,130.186523,33.150291,0.15,80.88,41,5,134,10,11.42684,33.15029318,130.186622,95.13
36.15,130.186523,33.150291,0.15,80.88,41,5,134,10,10.8342,33.15029253,130.1866172,81.54
36.3,130.186523,33.150291,0.15,80.32,48,1,121,10,10.63048,33.15029157,130.1866125,140.43
36.45,130.186523,33.150291,0.15,80.32,53,-2,106,10,10.14896,33.15029038,130.1866082,156.285
36.6,130.186447,33.150199,0.15,81.13,54,-3,101,10,9.98228,33.15028903,130.1866043,154.02
36.75,130.186447,33.15018,0.15,81.13,54,-3,101,10,9.59336,33.15028735,130.1866011,190.26
36.9,130.186462,33.15018,0.15,81.13,53,-8,91,10,9.59336,33.15028545,130.186598,226.5
37.05,130.186462,33.150161,0.15,82.13,50,-10,84,10,10.05636,33.1502834,130.1865947,197.055
37.2,130.186462,33.150142,0.15,82.13,48,-10,81,10,9.5378,33.1502811,130.1865917,190.26
37.35,130.186462,33.150142,0.15,82.13,48,-10,81,10,8.87108,33.15027899,130.186589,169.875
37.5,130.186477,33.150138,0.15,82.5,41,-14,72,10,8.90812,33.15027645,130.1865862,149.49
37.65,130.186492,33.150138,0.15,82.5,32,-20,57,10,8.94516,33.15027343,130.1865844,133.635
37.8,130.186523,33.150142,0.15,84.19,25,-20,49,10,8.90812,33.15027043,130.1865831,108.72
37.95,130.186523,33.150142,0.15,84.19,25,-20,49,10,8.96368,33.15026708,130.1865821,99.66
38.1,130.186523,33.150142,0.15,84.19,13,-17,39,10,9.42668,33.15026368,130.1865816,113.25
38.25,130.186553,33.15015,0.15,84.25,1,-10,34,10,9.51928,33.15025998,130.1865815,108.72
38.4,130.186553,33.15015,0.15,84.25,-4,-6,33,10,9.94524,33.15025617,130.1865816,108.72
38.55,130.186553,33.15015,0.15,84.25,-4,-6,33,10,9.99154,33.150252,130.1865818,104.19
38.7,130.186553,33.15015,0.15,82.75,-12,-5,36,10,11.35276,33.1502472,130.1865825,99.66
38.85,130.186553,33.15015,0.15,82.75,-24,-4,43,10,12.01948,33.15024209,130.1865841,95.13
39,130.186553,33.15015,0.15,83.25,-28,-4,48,10,12.90844,33.15023675,130.1865862,77.01
39.15,130.186553,33.15015,0.15,83.25,-28,-4,48,10,13.76962,33.15023104,130.1865888,110.985
39.3,130.186553,33.15015,0.15,83.25,-37,-1,58,10,14.4456,33.15022507,130.1865919,140.43
39.45,130.186553,33.15015,0.15,81.5,-47,1,67,10,15.33456,33.15021884,130.1865951,149.49
39.6,130.186553,33.15015,0.15,81.5,-49,0,73,10,15.6494,33.15021237,130.1865985,181.2
39.75,130.186553,33.15015,0.15,81.5,-49,0,73,10,16.69578,33.15020586,130.1866022,194.79
39.9,130.186553,33.15015,0.15,82.63,-52,1,84,10,16.98284,33.15019938,130.1866058,172.14
40.05,130.186737,33.150115,0.15,82.63,-52,6,89,10,18.03848,33.15019298,130.1866099,185.73
40.2,130.186752,33.150096,0.15,83.25,-51,6,92,10,18.81632,33.1501865,130.1866142,235.56
40.35,130.186752,33.150096,0.15,83.25,-51,6,92,10,19.909,33.15017994,130.1866187,197.055
40.5,130.186752,33.150085,0.15,83.25,-46,4,101,10,20.50164,33.15017355,130.1866234,126.84
40.65,130.186737,33.150066,0.15,83.25,-39,0,114,10,21.35356,33.1501668,130.1866286,120.045
40.8,130.186737,33.150051,0.15,83.25,-34,-4,121,10,21.98324,33.15015947,130.1866341,108.72
40.95,130.186737,33.150051,0.15,83.25,-34,-4,121,10,22.3073405,33.15015213,130.1866399,101.925
41.1,130.186721,33.150035,0.15,85.38,-19,-3,133,10,23.038879,33.15014435,130.1866458,95.13
41.25,130.186706,33.150016,0.15,85.38,-5,0,136,10,24.029699,33.15013638,130.1866519,113.25
41.4,130.186676,33.149986,0.15,84.82,2,-8,137,10,24.55752,33.15012852,130.1866581,140.43
41.55,130.186676,33.149986,0.15,84.82,2,-8,137,10,25.270539,33.15012037,130.1866647,149.49
41.7,130.186676,33.149963,0.15,84.82,19,-14,130,10,25.6502,33.15011195,130.1866713,149.49
41.85,130.18666,33.149929,0.15,86.38,11,-12,110,10,26.0854195,33.15010362,130.1866779,185.73
42,130.18666,33.14989,0.15,86.38,13,-5,101,10,26.613239,33.15009523,130.1866843,308.04
42.15,130.18666,33.14989,0.15,86.38,13,-5,101,10,27.1873595,33.15008643,130.1866907,362.4
42.3,130.186676,33.149868,0.15,84.44,21,3,90,10,27.74296,33.1500776,130.1866971,394.11
42.45,130.186706,33.149848,0.15,84.44,24,6,83,10,28.27078,33.15006848,130.1867037,421.29
42.6,130.186721,33.149848,0.15,84.94,25,7,79,10,28.705999,33.15005908,130.1867105,308.04
42.75,130.186721,33.149845,0.15,84.94,25,7,79,10,29.3819795,33.15004932,130.1867176,221.97
42.9,130.186737,33.149845,0.15,84.94,21,6,74,10,29.85424,33.15003935,130.1867245,158.55
43.05,130.186767,33.149841,0.15,85.38,14,1,67,10,30.4561395,33.15002953,130.1867314,133.635
43.2,130.186782,33.149841,0.15,85.38,10,0,64,10,30.72468,33.15001968,130.1867386,117.78
43.35,130.186782,33.149841,0.15,85.38,10,0,64,10,31.0395205,33.15000991,130.1867459,101.925
43.5,130.186813,33.149841,0.15,85.75,0,-2,60,10,31.31732,33.14999985,130.1867534,131.37
43.65,130.186843,33.149841,0.15,85.75,-10,-2,60,10,31.86366,33.14998929,130.1867608,147.225
43.8,130.186874,33.149841,0.15,85.44,-15,-1,61,10,32.502602,33.14997862,130.1867685,163.08
43.95,130.186874,33.149841,0.15,85.44,-15,-1,61,10,32.7526185,33.14996798,130.1867765,169.875
44.1,130.186889,33.149837,0.15,85.44,-25,0,63,10,33.373039,33.14995708,130.1867843,176.67
44.25,130.186935,33.149829,0.15,82.63,-38,0,67,10,33.8360405,33.14994603,130.1867923,169.875
44.4,130.186981,33.149818,0.15,82.63,-43,-5,72,10,34.354599,33.14993477,130.1868005,185.73
44.55,130.186981,33.149818,0.15,82.63,-43,-5,72,10,34.7898195,33.14992337,130.1868088,208.38
44.7,130.187011,33.149803,0.15,83.13,-39,-11,86,10,35.373199,33.14991193,130.1868172,212.91
44.85,130.187026,33.149784,0.15,83.13,-43,0,93,10,35.7713795,33.1499002,130.1868256,285.39
45,130.187057,33.149757,0.15,82,-46,6,93,10,36.317719,33.14988828,130.186834,385.05
45.15,130.187057,33.149757,0.15,82,-46,6,93,10,36.4751395,33.1498763,130.1868425,414.495
45.3,130.187072,33.14973,0.15,82,-47,7,99,10,37.18816,33.14986395,130.1868511,403.17
45.45,130.187057,33.149711,0.15,82.94,-43,1,110,10,37.734501,33.1498515,130.1868598,246.885
45.6,130.187057,33.149688,0.15,82.94,-41,-2,117,10,37.79932,33.14983908,130.1868684,199.32
45.75,130.187057,33.149688,0.15,82.94,-41,-2,117,10,38.57716,33.14982658,130.1868775,199.32
45.9,130.187042,33.149665,0.15,86.07,-29,-6,129,10,38.7994,33.14981392,130.1868867,190.26
46.05,130.187026,33.149639,0.15,86.07,-17,-7,135,10,39.3642595,33.14980108,130.1868959,206.115
46.2,130.187011,33.149608,0.15,86.88,-13,-2,135,10,39.55872,33.14978838,130.1869053,217.44
46.35,130.187011,33.149574,0.15,86.88,-13,-2,135,10,40.1513595,33.14977516,130.1869144,228.765
46.5,130.186996,33.149574,0.15,86.88,0,-3,136,10,40.706959,33.1497619,130.1869236,217.44
46.65,130.186981,33.149539,0.15,86,17,-6,133,10,40.95698,33.1497485,130.1869328,260.475
46.8,130.186981,33.149505,0.15,86,22,-10,124,10,41.281078,33.1497349,130.1869419,190.26
46.95,130.186981,33.149505,0.15,86,22,-10,124,10,41.68852,33.14972107,130.186951,267.27
47.1,130.186981,33.149463,0.15,85.88,26,-6,108,10,41.98484,33.14970722,130.1869603,357.87
47.25,130.186996,33.149429,0.15,85.88,39,6,103,10,42.3181995,33.14969331,130.1869698,416.76
47.4,130.186996,33.149398,0.15,83.25,41,12,103,10,42.410801,33.14967927,130.1869793,507.36
47.55,130.186996,33.149398,0.15,83.25,41,12,103,10,42.9756605,33.14966525,130.186989,432.615
47.7,130.187026,33.149379,0.15,83.25,41,6,93,10,43.096039,33.14965115,130.1869989,339.75
47.85,130.187042,33.149372,0.15,84,38,0,83,10,43.4293995,33.1496369,130.1870089,265.005
48,130.187042,33.149372,0.15,84,35,0,80,10,43.392361,33.14962268,130.1870188,194.79
48.15,130.187042,33.149372,0.15,84,35,0,80,10,43.6886785,33.14960833,130.1870287,231.03
48.3,130.187103,33.14936,0.15,87,25,-4,71,10,44.207241,33.14959382,130.1870388,181.2
48.45,130.187103,33.14936,0.15,87,15,-1,69,10,44.096119,33.14957951,130.187049,194.79
48.6,130.187103,33.14936,0.15,87.19,9,-3,70,10,44.114639,33.14956495,130.1870592,167.61
48.75,130.187103,33.149349,0.15,87.19,9,-3,70,10,44.15168,33.14955067,130.1870694,197.055
48.9,130.187179,33.149349,0.15,87.19,-1,-9,70,10,44.5406,33.14953653,130.1870798,190.26
49.05,130.18721,33.149345,0.15,87.19,-12,0,71,10,44.688761,33.14952233,130.1870904,163.08
49.2,130.18724,33.149337,0.15,87.19,-16,4,71,10,44.781361,33.14950778,130.187101,235.56
49.35,130.18724,33.149326,0.15,87.19,-16,4,71,10,44.901739,33.1494934,130.1871118,267.27
49.5,130.187286,33.149326,0.15,84.38,-26,11,71,10,45.022121,33.1494793,130.1871231,203.85
49.65,130.187316,33.149314,0.15,84.38,-39,4,77,10,45.7629205,33.14946503,130.1871344,199.32
49.8,130.187347,33.149299,0.15,84.25,-44,-2,85,10,45.633282,33.14945065,130.1871455,212.91
49.95,130.187347,33.14928,0.15,84.25,-44,-2,85,10,45.75366,33.14943603,130.1871566,192.525
50.1,130.187377,33.14928,0.15,84.25,-50,-5,93,10,45.911079,33.14942147,130.1871675,235.56
50.25,130.187408,33.149253,0.15,83.57,-56,5,95,10,45.9759005,33.14940685,130.1871784,337.485
50.4,130.187408,33.149253,0.15,83.57,-58,10,96,10,46.13332,33.14939237,130.1871893,407.7
50.55,130.187408,33.1492,0.15,83.57,-58,10,96,10,46.55002,33.14937722,130.1872003,407.7
50.7,130.187454,33.1492,0.15,82.75,-57,20,95,10,46.429642,33.1493621,130.1872113,357.87
50.85,130.187454,33.149177,0.15,82.75,-54,9,106,10,45.8277415,33.14934711,130.1872217,321.63
51,130.187438,33.149154,0.15,85.25,-53,7,111,10,45.781441,33.14933205,130.1872323,226.5
51.15,130.187438,33.149131,0.15,85.25,-53,7,111,10,45.6703205,33.14931691,130.1872429,174.405
51.3,130.187438,33.149131,0.15,85.25,-42,4,125,10,45.688839,33.14930168,130.1872536,167.61
51.45,130.187408,33.149108,0.15,87.07,-31,0,133,10,45.7351395,33.14928657,130.1872643,228.765
51.6,130.187393,33.149078,0.15,87.07,-25,-5,137,10,45.837002,33.14927157,130.187275,190.26
51.75,130.187393,33.149078,0.15,87.07,-25,-5,137,10,45.9296,33.14925651,130.1872855,181.2
51.9,130.187377,33.149044,0.15,86.94,-11,-6,142,10,46.040722,33.14924132,130.187296,181.2
52.05,130.187362,33.149013,0.15,86.94,5,-9,142,10,45.9203395,33.14922643,130.1873066,253.68
52.2,130.187362,33.148971,0.15,88.38,12,-11,137,10,45.94812,33.14921158,130.1873172,298.98
52.35,130.187362,33.148971,0.15,88.38,12,-11,137,10,45.93886,33.14919663,130.1873276,301.245
52.5,130.187362,33.148933,0.15,88.38,17,-8,121,10,46.059238,33.14918148,130.187338,348.81
52.65,130.187362,33.148891,0.15,85.82,25,2,109,10,46.3092595,33.14916628,130.1873484,439.41
52.8,130.187377,33.148868,0.15,85.82,28,5,104,10,46.374081,33.14915122,130.1873589,534.54
52.95,130.187377,33.148868,0.15,85.82,28,5,104,10,46.374081,33.14913627,130.1873693,532.275
53.1,130.187408,33.148849,0.15,85.82,29,5,94,10,46.411121,33.14912133,130.1873797,421.29
53.25,130.187438,33.148841,0.15,85.82,26,5,86,10,46.448158,33.14910654,130.18739,337.485
53.4,130.187469,33.148841,0.15,86.94,23,3,83,10,46.466679,33.14909157,130.1874004,253.68
53.55,130.187469,33.148838,0.15,86.94,23,3,83,10,46.7722605,33.1490764,130.1874111,246.885
53.7,130.187484,33.148838,0.15,86.94,14,2,79,10,46.707439,33.14906122,130.1874216,199.32
53.85,130.187515,33.14883,0.15,86.88,3,1,80,10,46.83708,33.14904591,130.1874319,201.585
54,130.187545,33.14883,0.15,86.88,-1,1,80,10,46.800041,33.1490305,130.1874423,203.85
54.15,130.187545,33.14883,0.15,86.88,-1,1,80,10,46.92042,33.14901512,130.1874528,201.585
54.3,130.187545,33.14883,0.15,86.32,-9,1,80,10,46.670399,33.14899977,130.1874635,199.32
54.45,130.187545,33.14883,0.15,86.32,-19,4,80,10,46.9574605,33.14898441,130.1874742,233.295
54.6,130.187652,33.148803,0.15,85.88,-25,7,81,10,46.92968,33.14896912,130.187485,221.97
54.75,130.187652,33.148792,0.15,85.88,-25,7,81,10,46.966721,33.14895387,130.1874959,226.5
54.9,130.187698,33.148792,0.15,85.88,-36,13,79,10,47.003761,33.14893877,130.1875068,262.74
55.05,130.187728,33.148777,0.15,82.57,-45,0,92,10,47.0870995,33.14892349,130.1875178,242.355
55.2,130.187759,33.148754,0.15,82.57,-42,-2,101,10,47.15192,33.14890827,130.1875287,221.97
55.35,130.187759,33.148754,0.15,82.57,-42,-2,101,10,47.2074795,33.14889282,130.1875395,269.535
55.5,130.187759,33.148754,0.15,82.94,-47,4,108,10,47.72604,33.14887733,130.1875505,344.28
55.65,130.187805,33.148704,0.15,82.94,-48,11,112,10,47.3648985,33.14886177,130.1875611,486.975
55.8,130.187805,33.148681,0.15,82.5,-47,11,117,10,47.70752,33.14884613,130.1875718,421.29
55.95,130.187805,33.148658,0.15,82.5,-47,11,117,10,47.383421,33.14883043,130.1875824,371.46
56.1,130.187805,33.148658,0.15,82.5,-45,6,129,10,47.077839,33.14881483,130.187593,244.62
56.25,130.187789,33.148635,0.15,85,-37,-8,146,10,47.52232,33.14879911,130.1876036,226.5
56.4,130.187774,33.148609,0.15,85,-31,-13,154,10,47.15192,33.14878345,130.1876141,217.44
56.55,130.187774,33.148609,0.15,85,-31,-13,154,10,47.476021,33.14876784,130.1876246,208.38
56.7,130.187774,33.148609,0.15,85,-17,-13,164,10,47.300079,33.1487523,130.1876353,235.56
56.85,130.187774,33.148609,0.15,87.88,-2,-12,166,10,47.2167395,33.14873663,130.1876458,292.185
57,130.187698,33.148513,0.15,84.69,4,-16,166,10,47.1334,33.14872093,130.1876562,312.57
57.15,130.187698,33.148471,0.15,84.69,4,-16,166,10,47.087099,33.14870508,130.1876665,312.57
57.3,130.187683,33.148471,0.15,84.69,-2,-18,154,10,46.985241,33.1486891,130.187677,335.22
57.45,130.187683,33.148422,0.15,83.75,3,-5,136,10,46.93894,33.14867315,130.1876874,373.725
57.6,130.187698,33.148384,0.15,83.75,8,1,129,10,46.892639,33.1486572,130.1876977,575.31
57.75,130.187698,33.148357,0.15,83.75,8,1,129,10,47.087099,33.14864144,130.1877081,686.295
57.9,130.187728,33.148357,0.15,82.69,19,13,119,10,46.855598,33.14862582,130.1877185,665.91
58.05,130.187759,33.148342,0.15,82.69,23,15,112,10,46.83708,33.14861033,130.187729,520.95
58.2,130.187789,33.14833,0.15,81.88,22,15,109,10,47.411201,33.14859485,130.1877394,362.4
58.35,130.187789,33.148326,0.15,81.88,22,15,109,10,46.8000415,33.14857965,130.1877499,255.945
58.5,130.18782,33.148326,0.15,81.88,19,6,101,10,47.207481,33.14856428,130.1877605,190.26
58.65,130.187835,33.148326,0.15,86.5,10,-1,90,10,47.2259995,33.14854889,130.1877713,185.73
58.8,130.187881,33.148326,0.15,86.5,6,0,88,10,46.688919,33.14853342,130.1877818,154.02
58.95,130.187881,33.148326,0.15,86.5,6,0,88,10,46.6148415,33.14851769,130.1877923,210.645
59.1,130.187881,33.148326,0.15,86.5,-2,3,87,10,46.892639,33.14850195,130.1878027,267.27
59.25,130.187881,33.148326,0.15,86.5,-14,4,85,10,46.4481605,33.14848632,130.1878131,235.56
59.4,130.187881,33.148326,0.15,85.38,-24,7,84,10,46.392601,33.14847065,130.1878234,190.26
59.55,130.187881,33.148326,0.15,85.38,-24,7,84,10,46.5222395,33.1484552,130.1878339,215.175
59.7,130.187881,33.148326,0.15,85.38,-30,11,83,10,46.52224,33.1484399,130.1878445,208.38
59.85,130.187881,33.148326,0.15,84.32,-33,7,88,10,46.5315,33.14842462,130.1878552,235.56
60,130.188079,33.148277,0.15,84.32,-31,-2,99,10,46.596321,33.14840928,130.187866,244.62
60.15,130.188079,33.14825,0.15,84.32,-31,1,116,10,46.7074395,33.14839409,130.1878768,258.21
60.3,130.18811,33.14825,0.15,82.63,-36,4,120,10,46.74448,33.14837898,130.1878875,366.93
60.45,130.188125,33.148223,0.15,82.63,-43,15,122,10,46.6981795,33.14836393,130.1878979,536.805
60.6,130.188125,33.148197,0.15,81.13,-44,17,126,10,46.670399,33.14834893,130.1879083,471.12
60.75,130.188125,33.148174,0.15,81.13,-44,17,126,10,46.605581,33.14833383,130.1879187,405.435
60.9,130.188125,33.148174,0.15,81.13,-43,8,140,10,46.633362,33.1483186,130.1879289,203.85
61.05,130.188125,33.148151,0.15,84.25,-39,-2,157,10,46.5685405,33.14830358,130.1879391,197.055
61.2,130.18811,33.148124,0.15,84.25,-35,-3,165,10,46.55928,33.14828847,130.1879493,185.73
61.35,130.18811,33.148097,0.15,84.25,-35,-3,165,10,46.14258,33.14827334,130.1879596,210.645
61.5,130.188095,33.148097,0.15,85.69,-24,1,173,10,46.299999,33.14825847,130.1879701,226.5
61.65,130.188079,33.148067,0.15,85.69,-9,1,174,10,46.392601,33.14824363,130.1879806,235.56
61.8,130.188064,33.148036,0.15,85.19,-2,1,174,10,46.281479,33.14822898,130.187991,167.61
61.95,130.188064,33.147998,0.15,85.19,-2,1,174,10,46.32778,33.14821422,130.1880014,178.935
62.1,130.188049,33.147998,0.15,85.19,14,-1,171,10,46.299999,33.14819923,130.188012,231.03
62.25,130.188034,33.147964,0.15,84.82,3,-5,152,10,46.290739,33.14818429,130.1880224,233.295
62.4,130.188049,33.147926,0.15,84.82,8,-5,143,10,46.281479,33.14816905,130.1880325,258.21
62.55,130.188049,33.147891,0.15,84.82,8,-5,143,10,46.3463005,33.1481537,130.1880426,380.52
62.7,130.188064,33.147891,0.15,83.44,14,2,125,10,46.466679,33.14813825,130.1880528,453
62.85,130.188095,33.147869,0.15,83.44,21,4,113,10,46.5314995,33.14812302,130.188063,484.71
63,130.188125,33.147853,0.15,84.5,21,11,112,10,46.596321,33.14810807,130.1880733,516.42
63.15,130.188125,33.147842,0.15,84.5,21,11,112,10,46.7074395,33.14809308,130.1880835,355.605
63.3,130.18814,33.147842,0.15,84.5,17,18,112,10,46.72596,33.14807817,130.1880937,326.16
63.45,130.188171,33.147842,0.15,83.75,11,21,113,10,46.698179,33.14806301,130.1881035,260.475
63.6,130.188186,33.14783,0.15,83.75,8,15,115,10,46.688919,33.148048,130.1881137,144.96
63.75,130.188186,33.147827,0.15,83.75,8,15,115,10,46.7166995,33.1480332,130.1881241,126.84
63.9,130.188217,33.147827,0.15,86.75,3,0,109,10,46.688919,33.1480183,130.1881344,117.78
64.05,130.188262,33.147819,0.15,86.75,-4,3,101,10,46.7166995,33.14800318,130.1881449,135.9
64.2,130.188293,33.147811,0.15,87.82,-13,12,98,10,46.74448,33.14798798,130.1881554,212.91
64.35,130.188293,33.147804,0.15,87.82,-13,12,98,10,46.7352195,33.14797303,130.1881662,287.655
64.5,130.188323,33.147804,0.15,87.82,-18,19,96,10,46.74448,33.14795832,130.1881771,258.21
64.65,130.188354,33.147796,0.15,84.25,-26,27,94,10,46.7166995,33.14794369,130.1881882,226.5
64.8,130.188369,33.147789,0.15,84.25,-32,26,93,10,46.800041,33.14792893,130.1881993,190.26
64.95,130.188369,33.147777,0.15,84.25,-32,26,93,10,46.846338,33.14791395,130.1882102,126.84
65.1,130.188415,33.147777,0.15,82.25,-44,8,101,10,46.52224,33.14789897,130.188221,140.43
65.25,130.188446,33.147754,0.15,82.25,-43,-6,119,10,46.93894,33.14788419,130.1882322,160.815
65.4,130.188476,33.147727,0.15,81.38,-45,2,130,10,46.74448,33.14786907,130.1882431,203.85
65.55,130.188476,33.147701,0.15,81.38,-45,2,130,10,46.6704005,33.14785386,130.1882539,366.93
65.7,130.188491,33.147701,0.15,81.38,-46,7,135,10,46.763,33.14783867,130.1882649,443.94
65.85,130.188507,33.14767,0.15,81.57,-47,9,151,10,46.299999,33.14782382,130.1882757,457.53
66,130.188491,33.147647,0.15,81.57,-44,3,168,10,46.31852,33.14780878,130.1882863,339.75
66.15,130.188491,33.147647,0.15,81.57,-44,3,168,10,46.2629585,33.14779375,130.1882968,249.15
66.3,130.188491,33.147647,0.15,81.57,-41,0,176,10,45.707359,33.14777893,130.1883074,217.44
66.45,130.188491,33.147647,0.15,84.25,-30,-4,-174,10,46.04072,33.14776438,130.1883181,185.73
66.6,130.188491,33.147647,0.15,86.82,-15,-8,-170,10,45.94812,33.1477496,130.1883287,181.2
66.75,130.188491,33.147647,0.15,86.82,-15,-8,-170,10,45.7721805,33.14773516,130.1883393,201.585
66.9,130.188491,33.147647,0.15,86.82,-8,-8,-170,10,45.596241,33.1477208,130.1883501,217.44
67.05,130.188491,33.147647,0.15,86.82,1,-10,-169,10,45.309179,33.14770636,130.1883606,249.15
67.2,130.188491,33.147647,0.15,85.5,9,-13,-175,10,45.15176,33.14769203,130.1883709,321.63
67.35,130.188491,33.14743,0.15,85.5,11,-11,177,10,44.8369195,33.14767792,130.1883813,287.655
67.5,130.188385,33.14743,0.15,84.44,14,-2,167,10,44.836922,33.14766362,130.1883916,389.58
67.65,130.1884,33.147399,0.15,84.44,25,6,152,10,44.5313395,33.14764916,130.1884017,477.915
67.8,130.188415,33.147373,0.15,82.69,31,12,139,10,44.92952,33.1476346,130.1884116,516.42
67.95,130.188415,33.14735,0.15,82.69,31,12,139,10,44.2350195,33.14762045,130.1884216,419.025
68.1,130.188446,33.14735,0.15,82.69,32,12,134,10,44.15168,33.14760637,130.1884317,303.51
68.25,130.188461,33.147342,0.15,82.57,29,8,128,10,43.7627605,33.14759223,130.1884418,267.27
68.4,130.188476,33.147335,0.15,82.57,22,6,121,10,44.022041,33.1475777,130.1884519,172.14
68.55,130.188476,33.147331,0.15,82.57,22,6,121,10,43.55904,33.14756292,130.1884621,138.165
68.7,130.188507,33.147331,0.15,84.32,17,11,122,10,43.114559,33.14754833,130.1884721,176.67
68.85,130.188522,33.147327,0.15,84.32,8,13,124,10,42.4293215,33.14753404,130.188482,151.755
69,130.188537,33.147323,0.15,84.13,0,10,123,10,41.929279,33.14751967,130.1884915,194.79
69.15,130.188537,33.147315,0.15,84.13,0,10,123,10,41.3458995,33.14750546,130.1885012,83.805
69.3,130.188568,33.147315,0.15,84.13,-5,13,124,10,40.818081,33.14749148,130.188511,95.13
69.45,130.188598,33.147304,0.15,84.44,-17,5,126,10,40.632881,33.1474778,130.1885207,97.395
69.6,130.188613,33.147293,0.15,84.44,-25,7,132,10,39.892078,33.14746412,130.1885302,154.02
69.75,130.188613,33.147277,0.15,84.44,-25,7,132,10,40.040239,33.14745043,130.18854,88.335
69.9,130.188629,33.147277,0.15,84.44,-30,8,134,10,39.484638,33.14743713,130.1885497,203.85
70.05,130.188659,33.147262,0.15,84.44,-39,10,142,10,39.47538,33.14742373,130.1885586,206.115
70.2,130.188674,33.147243,0.15,84.13,-42,21,153,10,38.873482,33.14741032,130.1885672,185.73
70.35,130.188674,33.147224,0.15,84.13,-42,21,153,10,38.8271805,33.14739671,130.1885748,185.73
70.5,130.188674,33.147224,0.15,84.13,-44,20,158,10,38.336399,33.14738335,130.1885825,203.85
70.65,130.188674,33.147205,0.15,84.57,-45,20,171,10,38.0585995,33.14737054,130.1885903,181.2
70.8,130.188674,33.14719,0.15,84.57,-42,20,-179,10,38.151199,33.1473577,130.1885982,117.78
70.95,130.188674,33.147171,0.15,84.57,-42,20,-179,10,38.030821,33.14734464,130.1886055,113.25
71.1,130.188674,33.147171,0.15,84.13,-39,17,-176,10,36.947399,33.14733175,130.188612,108.72
71.25,130.188674,33.147159,0.15,84.13,-35,15,-168,10,36.78998,33.14731916,130.1886182,97.395
71.4,130.188659,33.14714,0.15,84.19,-30,10,-163,10,36.113998,33.14730647,130.188624,72.48
71.55,130.188659,33.147125,0.15,84.19,-30,10,-163,10,36.0306605,33.14729374,130.1886294,99.66
71.7,130.188659,33.147125,0.15,84.19,-27,8,-160,10,35.61396,33.14728128,130.1886347,131.37
71.85,130.188644,33.147106,0.15,84.32,-19,5,-153,10,34.9287205,33.14726899,130.1886397,86.07
72,130.188629,33.147087,0.15,84.32,-3,8,-151,10,34.18792,33.14725682,130.1886444,131.37
72.15,130.188629,33.147064,0.15,84.32,-3,8,-151,10,33.9008595,33.14724462,130.188649,144.96
72.3,130.188613,33.147064,0.15,82.88,2,11,-155,10,33.18784,33.14723263,130.1886533,135.9
72.45,130.188598,33.147041,0.15,82.88,15,11,-165,10,33.160059,33.14722066,130.1886575,174.405
72.6,130.188598,33.147014,0.15,83.13,28,10,-179,10,33.132278,33.1472087,130.1886616,176.67
72.75,130.188598,33.146991,0.15,83.13,28,10,-179,10,32.03034,33.14719687,130.1886653,167.61
72.9,130.188598,33.146991,0.15,83.13,32,9,172,10,31.53956,33.14718522,130.1886685,185.73
73.05,130.188598,33.146972,0.15,83.44,38,10,156,10,31.484,33.14717383,130.188672,194.79
73.2,130.188613,33.146957,0.15,83.44,39,4,146,10,30.53948,33.14716265,130.1886755,217.44
73.35,130.188613,33.146942,0.15,83.44,39,4,146,10,30.4468805,33.14715153,130.1886792,187.995
73.5,130.188629,33.146942,0.15,84,39,3,142,10,30.31724,33.1471403,130.188683,158.55
73.65,130.188629,33.146934,0.15,84,35,1,137,10,29.8727595,33.14712923,130.1886869,129.105
73.8,130.188644,33.14693,0.15,83.75,29,4,135,10,29.002319,33.14711838,130.188691,135.9
73.95,130.188644,33.14693,0.15,83.75,29,4,135,10,28.64118,33.14710775,130.1886951,101.925
74.1,130.188659,33.146923,0.15,83.75,27,6,135,10,28.02076,33.14709723,130.1886991,86.07
74.25,130.188659,33.146915,0.15,83.75,22,9,141,10,27.5762805,33.14708703,130.1887031,70.215
74.4,130.188674,33.146907,0.15,83.75,19,9,147,10,27.205879,33.14707722,130.188707,58.89
74.55,130.188674,33.146896,0.15,83.75,19,9,147,10,26.84474,33.14706743,130.188711,52.095
74.7,130.188674,33.146896,0.15,83.25,20,9,148,10,26.13172,33.14705818,130.1887149,45.3
74.85,130.18869,33.146888,0.15,83.25,20,10,151,10,26.05764,33.14704931,130.1887192,52.095
75,130.188705,33.146877,0.15,82.25,24,7,150,10,25.483521,33.14704038,130.1887238,49.83
75.15,130.188705,33.146862,0.15,82.25,24,7,150,10,24.80754,33.14703177,130.1887284,79.275
75.3,130.188705,33.146862,0.15,82.25,25,4,148,10,24.03896,33.1470236,130.1887329,72.48
75.45,130.18872,33.146846,0.15,82.94,31,1,136,10,23.3629795,33.14701595,130.1887374,99.66
75.6,130.188751,33.146839,0.15,82.94,35,4,128,10,23.07592,33.14700868,130.188742,131.37
75.75,130.188751,33.146831,0.15,82.94,35,4,128,10,22.5851405,33.14700183,130.1887469,158.55
75.9,130.188766,33.146831,0.15,82.94,36,6,125,10,21.742479,33.14699522,130.1887521,176.67
76.05,130.188781,33.146823,0.15,82.94,38,12,123,10,21.2054005,33.14698941,130.1887576,147.225
76.2,130.188796,33.146823,0.15,82.13,39,14,120,10,20.0942,33.1469842,130.1887632,131.37
76.35,130.188796,33.146823,0.15,82.13,39,14,120,10,19.68676,33.14697883,130.1887689,117.78
76.5,130.188796,33.146823,0.15,82.13,40,13,116,10,19.31636,33.14697388,130.1887747,104.19
76.65,130.188827,33.14682,0.15,82.13,40,8,107,10,18.5292595,33.14696976,130.1887807,88.335
76.8,130.188827,33.14682,0.15,82.13,39,12,103,10,17.27916,33.14696625,130.1887864,95.13
76.95,130.188827,33.14682,0.15,82.13,39,12,103,10,17.10322,33.14696313,130.1887925,86.07
77.1,130.188827,33.14682,0.15,82.13,39,15,103,10,15.81608,33.14696072,130.1887986,72.48
77.25,130.188827,33.14682,0.15,81.75,38,19,106,10,15.26048,33.14695983,130.1888048,52.095
77.4,130.188827,33.14682,0.15,80.25,38,24,112,10,14.39004,33.14696003,130.188811,31.71
77.55,130.188827,33.14682,0.15,80.25,38,24,113,10,14.39004,33.14696078,130.1888169,29.445
77.7,130.188827,33.14682,0.15,80.25,39,24,113,10,13.09364,33.14696222,130.1888226,27.18
77.85,130.188827,33.14682,0.15,78.69,43,22,108,10,13.20476,33.14696355,130.1888281,33.975
78,130.188827,33.14682,0.15,78.69,48,14,98,10,12.70472,33.14696495,130.1888334,49.83
78.15,130.188827,33.14682,0.15,78.69,48,14,98,10,11.75094,33.14696619,130.1888382,67.95
78.3,130.188827,33.14682,0.15,76.5,49,9,93,10,11.90836,33.14696812,130.1888431,86.07
78.45,130.188827,33.14682,0.15,76.5,50,-4,80,10,11.88058,33.14697048,130.188848,92.865
78.6,130.188827,33.14682,0.15,73.94,49,-13,69,10,11.44536,33.1469725,130.1888523,99.66
78.75,130.188827,33.14682,0.15,73.94,49,-13,69,10,10.61196,33.14697531,130.1888559,104.19
78.9,130.188827,33.14682,0.15,73.94,49,-16,65,10,10.38972,33.14697803,130.1888591,108.72
79.05,130.188827,33.14682,0.15,74,47,-22,55,10,10.42676,33.14698068,130.1888621,126.84
79.2,130.188827,33.14682,0.15,74,44,-27,44,10,10.8342,33.14698347,130.1888649,126.84
79.35,130.188827,33.14682,0.15,74,44,-27,44,10,11.84354,33.14698712,130.1888678,135.9
79.5,130.188995,33.146923,0.15,76.5,45,-26,41,10,11.46388,33.14699118,130.1888701,154.02
79.65,130.188995,33.146949,0.15,76.5,47,-22,37,10,10.95458,33.14699554,130.1888718,174.405
79.8,130.188995,33.146972,0.15,76.44,43,-27,26,10,12.46396,33.14700013,130.1888737,181.2
79.95,130.188995,33.146991,0.15,76.44,43,-27,26,10,12.6399,33.14700435,130.1888751,163.08
80.1,130.188995,33.146991,0.15,76.44,41,-27,19,10,12.76028,33.14700907,130.1888761,126.84
80.25,130.18898,33.147014,0.15,78,33,-28,3,10,12.79732,33.14701378,130.1888767,135.9
80.4,130.188964,33.147029,0.15,78,24,-30,-11,10,13.27884,33.14701905,130.188877,163.08
80.55,130.188964,33.147041,0.15,78,24,-30,-11,10,13.66776,33.14702428,130.1888768,147.225
80.7,130.188949,33.147041,0.15,81.63,20,-29,-18,10,14.61228,33.14703,130.1888758,140.43
80.85,130.188919,33.147048,0.15,81.63,12,-24,-33,10,15.24196,33.14703607,130.1888738,135.9
81,130.188888,33.147052,0.15,83.5,2,-17,-45,10,15.57532,33.14704258,130.1888717,144.96
81.15,130.188888,33.147052,0.15,83.5,2,-17,-45,10,16.36242,33.14704931,130.1888695,140.43
81.3,130.188873,33.147052,0.15,83.5,-2,-12,-50,10,16.61244,33.14705572,130.1888669,95.13
81.45,130.188858,33.147052,0.15,83,-10,-5,-56,10,17.34398,33.14706203,130.1888634,83.805
81.6,130.188827,33.147052,0.15,83,-21,-6,-59,10,18.07552,33.14706823,130.1888591,63.42
81.75,130.188827,33.147052,0.15,83,-21,-6,-59,10,18.6311195,33.14707493,130.1888546,52.095
81.9,130.188812,33.147052,0.15,82.69,-26,-5,-60,10,19.723801,33.147082,130.1888496,45.3
82.05,130.188781,33.147056,0.15,82.69,-37,-9,-57,10,20.38126,33.14708945,130.1888444,74.745
82.2,130.188751,33.14706,0.15,81.88,-38,-8,-43,10,20.946119,33.14709695,130.1888389,117.78
82.35,130.188751,33.14706,0.15,81.88,-38,-8,-43,10,21.9554605,33.14710473,130.1888333,142.695
82.5,130.188705,33.147079,0.15,81.88,-39,-6,-34,10,22.26104,33.1471126,130.1888275,190.26
82.65,130.188674,33.147102,0.15,83.07,-42,-2,-4,10,23.2796405,33.14712028,130.1888212,267.27
82.8,130.188659,33.147129,0.15,83.07,-43,0,21,10,23.8908,33.14712817,130.1888151,258.21
82.95,130.188659,33.147151,0.15,83.07,-43,0,21,10,24.3908395,33.14713628,130.188809,240.09
83.1,130.188659,33.147151,0.15,83.13,-42,0,31,10,25.15016,33.14714433,130.188803,199.32
83.25,130.188659,33.147171,0.15,83.13,-38,-1,45,10,25.4372195,33.14715257,130.1887971,151.755
83.4,130.188674,33.14719,0.15,83.88,-30,-4,57,10,26.33544,33.14716093,130.1887907,108.72
83.55,130.188674,33.147209,0.15,83.88,-30,-4,57,10,26.5762005,33.14716952,130.1887842,88.335
83.7,130.18869,33.147209,0.15,83.88,-26,-5,63,10,26.779921,33.1471784,130.1887777,108.72
83.85,130.188705,33.147216,0.15,84.57,-16,1,71,10,27.80778,33.14718734,130.188771,101.925
84,130.18872,33.147228,0.15,84.57,-3,4,77,9,27.46516,33.14719625,130.1887644,99.66
84.15,130.18872,33.147228,0.15,84.57,-3,4,77,9,27.6781405,33.14720514,130.1887577,124.575
84.3,130.18872,33.147228,0.15,80.88,5,7,77,9,27.9652,33.14721408,130.1887507,122.31
84.45,130.188766,33.147262,0.15,80.88,14,0,63,9,28.4281995,33.14722302,130.1887435,106.455
84.6,130.188766,33.147289,0.15,80.07,12,0,30,9,28.83564,33.14723215,130.1887362,163.08
84.75,130.188766,33.147289,0.15,80.07,12,0,30,9,28.9652795,33.14724142,130.1887291,183.465
84.9,130.188766,33.147289,0.15,80.07,14,2,16,9,29.798679,33.14725073,130.188722,276.33
85.05,130.188751,33.147342,0.15,80.07,18,0,-6,10,30.4376205,33.14726012,130.1887149,308.04
85.2,130.18872,33.147361,0.15,80.07,19,-2,-26,10,30.6506,33.1472697,130.1887078,308.04
85.35,130.18872,33.147361,0.15,80.07,19,-2,-26,10,30.9839605,33.14727935,130.1887005,242.355
85.5,130.18872,33.147361,0.15,80.07,18,-1,-32,10,31.33584,33.14728923,130.188693,176.67
85.65,130.18872,33.147361,0.15,82.38,16,-2,-38,10,31.82662,33.1472997,130.1886855,174.405
85.8,130.18872,33.147361,0.15,82.38,12,-2,-50,10,32.354439,33.14730997,130.188678,135.9
85.95,130.18872,33.147361,0.15,83.38,8,-1,-54,10,32.7433605,33.14732052,130.1886706,79.275
86.1,130.18872,33.147361,0.15,83.38,2,0,-58,10,33.18784,33.14733112,130.1886629,72.48
86.25,130.188613,33.147373,0.15,85.13,-6,1,-70,10,33.132278,33.14734168,130.1886552,67.95
86.4,130.188598,33.147373,0.15,85.13,-15,4,-78,10,33.465641,33.1473521,130.1886475,54.36
86.55,130.188598,33.147369,0.15,85.13,-15,4,-78,10,33.8453005,33.14736264,130.1886394,33.975
86.7,130.188568,33.147369,0.15,84.63,-21,3,-81,10,34.262001,33.14737308,130.1886314,58.89
86.85,130.188537,33.147369,0.15,84.63,-33,0,-80,10,33.752699,33.14738392,130.1886236,56.625
87,130.188507,33.147369,0.15,82.38,-35,-7,-65,10,33.4286,33.14739463,130.1886156,67.95
87.15,130.188507,33.147377,0.15,82.38,-35,-7,-65,10,32.5026,33.1474055,130.1886081,144.96
87.3,130.188461,33.147377,0.15,82.38,-33,-11,-53,10,31.465481,33.14741608,130.1886006,158.55
87.45,130.18843,33.147403,0.15,81.88,-33,-10,-31,10,32.0581205,33.14742637,130.188593,265.005
87.6,130.188385,33.14743,0.15,81.88,-37,-5,-10,10,31.44696,33.1474366,130.1885851,317.1
87.75,130.188385,33.147464,0.15,81.88,-37,-5,-10,10,30.3635395,33.14744645,130.1885776,375.99
87.9,130.188369,33.147464,0.15,83.38,-38,-3,1,10,30.391319,33.14745598,130.1885703,348.81
88.05,130.188369,33.147495,0.15,83.38,-39,-1,19,10,30.33576,33.14746596,130.1885634,317.1
88.2,130.188385,33.147521,0.15,84.19,-36,4,32,10,30.965441,33.14747588,130.1885562,267.27
88.35,130.188385,33.147544,0.15,84.19,-36,4,32,10,31.9006995,33.14748637,130.188549,228.765
88.5,130.1884,33.147544,0.15,84.19,-35,8,36,10,31.72476,33.14749697,130.1885419,185.73
88.65,130.188415,33.147556,0.15,84.32,-27,9,40,9,32.6877995,33.14750778,130.1885347,138.165
88.8,130.18843,33.147571,0.15,84.32,-16,11,45,9,32.854481,33.14751862,130.1885273,86.07
88.95,130.18843,33.14759,0.15,84.32,-16,11,45,9,33.5860215,33.14752966,130.1885198,77.01
89.1,130.18843,33.14759,0.15,83.75,-11,13,47,9,34.243481,33.14754107,130.1885121,72.48
89.25,130.18843,33.14759,0.15,83.75,0,14,50,9,34.60462,33.14755262,130.1885043,86.07
89.4,130.188461,33.147628,0.15,80.82,17,4,47,9,35.336159,33.14756453,130.1884965,81.54
89.55,130.188461,33.147628,0.15,80.82,17,4,47,9,35.67878,33.14757679,130.1884886,97.395
89.7,130.188461,33.147628,0.15,80.82,15,0,37,9,36.59552,33.14758917,130.1884805,117.78
89.85,130.188476,33.147689,0.15,81.57,5,-5,6,9,36.743679,33.14760159,130.1884722,174.405
90,130.188476,33.147689,0.15,81.57,7,-1,-19,9,37.4104,33.14761392,130.1884638,267.27
90.15,130.188476,33.147747,0.15,81.57,7,-1,-19,9,38.262321,33.14762661,130.1884551,346.545
90.3,130.188446,33.147747,0.15,82.07,9,0,-30,10,38.16972,33.1476396,130.1884465,416.76
90.45,130.188415,33.147762,0.15,82.07,13,2,-47,10,38.734581,33.14765273,130.1884379,353.34
90.6,130.188369,33.147769,0.15,83.19,11,1,-56,10,39.1698,33.14766583,130.1884289,285.39
90.75,130.188369,33.147773,0.15,83.19,11,1,-56,10,39.7994805,33.14767909,130.1884197,203.85
90.9,130.188354,33.147773,0.15,83.19,7,0,-60,10,40.16988,33.14769212,130.1884103,163.08
91.05,130.188354,33.147773,0.15,83.19,-2,1,-68,10,40.929199,33.14770512,130.1884005,133.635
91.2,130.188293,33.147777,0.15,86.25,-12,8,-72,10,41.244041,33.14771822,130.1883907,131.37
91.35,130.188293,33.147777,0.15,86.25,-12,8,-72,10,41.78112,33.14773167,130.1883809,142.695
91.5,130.188293,33.147777,0.15,86.63,-22,9,-73,10,42.521919,33.14774537,130.188371,149.49
91.65,130.188293,33.147777,0.15,86.63,-27,10,-74,10,42.521919,33.14775901,130.188361,122.31
91.8,130.188293,33.147777,0.15,84.07,-38,10,-75,10,42.929359,33.14777268,130.1883509,104.19
91.95,130.188293,33.147811,0.15,84.07,-38,10,-75,10,43.65164,33.14778682,130.1883408,138.165
92.1,130.188125,33.147811,0.15,84.07,-40,2,-68,10,43.818321,33.14780093,130.1883306,176.67
92.25,130.188095,33.147838,0.15,81.13,-40,-3,-45,10,44.596161,33.14781521,130.1883198,176.67
92.4,130.188049,33.147869,0.15,81.13,-45,0,-27,10,44.836922,33.1478297,130.188309,235.56
92.55,130.188049,33.147899,0.15,81.13,-45,0,-27,10,45.34622,33.14784423,130.1882982,396.375
92.7,130.188034,33.147899,0.15,80.5,-46,2,-16,10,45.448078,33.14785855,130.1882876,398.64
92.85,130.188034,33.147899,0.15,80.5,-47,4,5,10,46.290741,33.14787295,130.1882767,380.52
93,130.188034,33.147899,0.15,82.94,-45,4,20,10,46.800041,33.14788753,130.1882655,298.98
93.15,130.188034,33.147899,0.15,82.94,-45,4,20,10,46.688919,33.14790221,130.1882546,244.62
93.3,130.188034,33.147899,0.15,82.94,-40,-1,34,10,46.855598,33.14791735,130.1882437,203.85
93.45,130.188049,33.148002,0.15,84.32,-36,-3,39,10,47.1333995,33.14793282,130.1882331,165.345
93.6,130.188064,33.148021,0.15,84.32,-24,-5,47,10,46.74448,33.14794822,130.1882224,122.31
93.75,130.188064,33.14804,0.15,84.32,-24,-5,47,10,46.6240995,33.14796358,130.1882118,142.695
93.9,130.188095,33.14804,0.15,84.5,-16,-4,50,10,46.448158,33.14797878,130.188201,135.9
94.05,130.188095,33.14804,0.15,84.5,0,-8,52,10,46.54076,33.14799386,130.1881903,147.225
94.2,130.18814,33.148086,0.15,82.19,7,-16,46,9,46.54076,33.14800905,130.1881797,163.08
94.35,130.18814,33.148086,0.15,82.19,7,-16,46,9,46.55002,33.14802427,130.188169,185.73
94.5,130.18814,33.148086,0.15,82.19,-11,-13,24,9,46.55928,33.14803935,130.1881584,231.03
94.65,130.18814,33.14817,0.15,80.07,-8,-7,13,9,46.92042,33.14805408,130.1881474,326.16
94.8,130.188125,33.148216,0.15,80.07,1,4,-6,9,46.855598,33.14806872,130.1881365,453
94.95,130.188125,33.148216,0.15,80.07,1,4,-6,9,47.0037615,33.14808382,130.1881256,557.19
95.1,130.188125,33.148216,0.15,79.5,11,6,-22,9,47.170441,33.14809902,130.1881147,502.83
95.25,130.188125,33.148216,0.15,79.5,14,8,-28,9,47.1334,33.14811422,130.1881038,391.845
95.4,130.188034,33.148281,0.15,82.13,13,5,-37,10,47.207481,33.14812983,130.1880932,271.8
95.55,130.188018,33.148284,0.15,82.13,13,5,-37,10,47.300079,33.14814573,130.1880825,226.5
95.7,130.188018,33.148284,0.15,82.13,11,4,-41,9,47.35564,33.14816163,130.1880717,176.67
95.85,130.187988,33.148288,0.15,84.44,4,3,-49,9,47.3649005,33.14817716,130.1880611,140.43
96,130.187988,33.148288,0.15,84.44,-4,1,-56,9,47.392681,33.14819223,130.1880505,144.96
96.15,130.187988,33.148288,0.15,84.44,-4,1,-56,9,47.43898,33.14820743,130.1880397,131.37
96.3,130.187988,33.148288,0.15,87.82,-15,2,-62,9,47.15192,33.14822262,130.1880287,135.9
96.45,130.187881,33.1483,0.15,87.82,-19,4,-65,10,47.188961,33.14823728,130.1880178,138.165
96.6,130.18785,33.148307,0.15,86.07,-29,11,-71,10,47.040798,33.14825223,130.1880073,144.96
96.75,130.18785,33.148315,0.15,86.07,-29,11,-71,10,47.1056195,33.14826758,130.1879968,167.61
96.9,130.187805,33.148315,0.15,86.07,-35,13,-73,10,47.040798,33.14828307,130.1879861,167.61
97.05,130.187759,33.14833,0.15,81.32,-38,1,-55,10,47.0963595,33.14829876,130.1879755,167.61
97.2,130.187713,33.148353,0.15,81.32,-27,-2,-20,10,47.15192,33.1483145,130.1879649,172.14
97.35,130.187713,33.148353,0.15,81.32,-27,-2,-20,10,47.2167395,33.14833025,130.1879543,235.56
97.5,130.187713,33.148353,0.15,81.32,-25,1,-2,10,47.3186,33.14834615,130.1879436,375.99
97.65,130.187713,33.148353,0.15,82.94,-25,5,38,10,47.43898,33.14836226,130.1879331,414.495
97.8,130.187683,33.148437,0.15,83.38,-25,5,38,10,47.54084,33.14837833,130.1879226,498.3
97.95,130.187698,33.148468,0.15,83.38,-25,3,49,10,47.53158,33.14839428,130.1879122,391.845
98.1,130.187698,33.148468,0.15,83.38,-25,-1,59,10,47.577881,33.14841017,130.1879016,298.98
98.25,130.187698,33.148468,0.15,83.38,-18,-10,78,10,47.596401,33.14842603,130.1878912,176.67
98.4,130.187759,33.148513,0.15,84.44,-5,-17,86,10,47.614922,33.14844165,130.1878805,176.67
