time,long,lat,dt,H,Roll,pitch,yaw,S,truckSpeed,truck_Lat,truck_long,Tension
0,130.18898,33.1468,0.15,69.13,0,-58,32,10,0,33.14697,130.18884,0
0.15,130.18898,33.1468,0.15,69.13,2,-43,42,10,0.07408,33.14697056,130.1888474,0
0.3,130.18898,33.146804,0.15,69.63,2,-43,42,10,0.0926,33.14697065,130.1888473,0
0.45,130.18898,33.146804,0.15,69.63,2,-41,44,10,0.21298,33.14697083,130.188847,0
0.6,130.18898,33.146808,0.15,69.63,2,-45,42,10,0.03704,33.14697088,130.1888469,0
0.75,130.18898,33.146812,0.15,70.07,1,-48,40,10,0.19446,33.14697103,130.1888467,0
0.9,130.18898,33.146816,0.15,70.07,1,-48,40,10,0.16668,33.14697123,130.1888466,0
1.05,130.18898,33.146816,0.15,70.07,1,-47,41,10,0.3704,33.14697146,130.1888464,4.53
1.2,130.188964,33.146823,0.15,69.94,1,-46,42,10,0.90748,33.14697192,130.1888461,13.59
1.35,130.188964,33.146827,0.15,69.94,0,-45,43,10,1.92608,33.14697261,130.1888453,13.59
1.5,130.188964,33.146831,0.15,69.94,0,-45,43,10,3.31508,33.1469737,130.1888445,4.53
1.65,130.188964,33.146831,0.15,70.5,0,-43,44,10,4.56518,33.1469753,130.1888433,2.265
1.8,130.188964,33.146831,0.15,70.5,0,-43,44,10,5.25968,33.1469771,130.1888417,0
1.95,130.188949,33.146831,0.15,73.25,-1,-41,44,10,6.41718,33.14697935,130.1888399,2.265
2.1,130.188949,33.146831,0.15,73.25,-1,-41,44,10,7.0376,33.14698182,130.1888377,4.53
2.25,130.188949,33.146831,0.15,73.25,-1,-40,45,10,8.36178,33.14698468,130.1888354,9.06
2.4,130.188964,33.146842,0.15,73.44,-2,-41,44,10,9.20444,33.1469878,130.1888329,9.06
2.55,130.188964,33.146846,0.15,73.44,-1,-45,46,10,9.98228,33.14699115,130.1888302,9.06
2.7,130.188949,33.146865,0.15,80.57,-1,-45,46,10,11.07496,33.14699483,130.1888272,13.59
2.85,130.188949,33.146865,0.15,80.57,-1,-43,49,10,12.09356,33.14699893,130.188824,18.12
3,130.188934,33.146888,0.15,80.57,0,-35,55,10,13.18624,33.1470034,130.1888206,22.65
3.15,130.188919,33.146911,0.15,82.38,5,-31,59,10,13.73258,33.14700804,130.1888171,22.65
3.3,130.188903,33.146934,0.15,82.38,6,-31,59,10,14.55672,33.14701285,130.1888135,36.24
3.45,130.188903,33.146934,0.15,82.38,6,-26,59,10,15.6031,33.14701804,130.1888097,49.83
3.6,130.188888,33.146957,0.15,83.75,5,-10,58,10,15.85312,33.14702322,130.188806,58.89
3.75,130.188873,33.146976,0.15,83.75,1,1,57,10,16.72356,33.14702863,130.1888019,101.925
3.9,130.188858,33.146999,0.15,84,1,1,57,10,16.834681,33.14703422,130.1887977,221.97
4.05,130.188858,33.146999,0.15,84,1,5,59,10,17.5014,33.14703979,130.1887934,285.39
4.2,130.188858,33.146999,0.15,84,2,12,64,10,18.52,33.14704562,130.188789,298.98
4.35,130.188858,33.146999,0.15,84,0,15,66,10,19.1681995,33.14705184,130.1887846,265.005
4.5,130.188827,33.147048,0.15,83.94,0,15,66,10,19.61268,33.14705843,130.1887801,221.97
4.65,130.188827,33.147048,0.15,83.94,0,19,66,10,20.3627405,33.14706501,130.1887753,246.885
4.8,130.188812,33.147056,0.15,83.94,1,22,67,10,20.242359,33.14707172,130.1887704,217.44
4.95,130.188812,33.147071,0.15,83.94,1,23,68,10,22.0388,33.14707925,130.1887652,144.96
5.1,130.188812,33.147083,0.15,83.94,1,23,68,10,22.5944,33.1470869,130.1887598,117.78
5.25,130.188812,33.147083,0.15,83.94,2,23,68,10,22.8999795,33.14709496,130.1887543,99.66
5.4,130.188796,33.147094,0.15,83.94,3,24,68,10,23.038879,33.14710323,130.1887485,99.66
5.55,130.188796,33.147106,0.15,83.69,5,25,68,10,23.372239,33.14711149,130.1887428,72.48
5.7,130.188781,33.147117,0.15,83.69,5,25,68,10,23.9834,33.14711968,130.188737,63.42
5.85,130.188781,33.147117,0.15,83.69,6,25,68,10,24.27046,33.14712793,130.1887311,56.625
6,130.188781,33.147129,0.15,83.57,6,24,69,10,25.15016,33.14713643,130.1887251,49.83
6.15,130.188781,33.147136,0.15,83.57,6,26,70,10,25.12238,33.14714438,130.1887195,38.505
6.3,130.188766,33.147148,0.15,83.13,6,26,70,10,25.613159,33.14715242,130.1887139,31.71
6.45,130.188766,33.147148,0.15,83.13,6,27,70,10,25.7705805,33.14716049,130.1887083,29.445
6.6,130.188766,33.147159,0.15,83.13,6,29,71,10,26.020599,33.14716867,130.1887026,18.12
6.75,130.188766,33.147167,0.15,82.69,7,29,72,10,26.4280405,33.14717703,130.1886967,2.265
6.9,130.188751,33.147174,0.15,82.69,7,29,72,10,27.020679,33.1471856,130.1886905,4.53
7.05,130.188751,33.147174,0.15,82.69,8,30,72,10,27.33552,33.1471945,130.1886842,0
7.2,130.188751,33.147186,0.15,82.25,8,30,73,10,27.66888,33.1472034,130.1886779,0
7.35,130.188751,33.147186,0.15,82.25,10,29,73,10,27.9466805,33.1472123,130.1886718,2.265
7.5,130.188751,33.147201,0.15,81.25,10,29,73,10,28.55784,33.14722135,130.1886656,0
7.65,130.188751,33.147201,0.15,81.25,11,29,74,10,28.5300595,33.1472304,130.1886593,0
7.8,130.188735,33.147224,0.15,81.25,12,28,75,10,29.03936,33.14723967,130.1886528,0
7.95,130.188735,33.147239,0.15,80.44,14,28,77,10,29.3912405,33.14724883,130.1886462,0
8.1,130.18872,33.147254,0.15,80.44,14,28,77,10,29.74312,33.14725818,130.1886396,0
8.25,130.18872,33.147254,0.15,80.44,17,30,79,10,30.0672195,33.14726757,130.1886329,0
8.4,130.18872,33.147277,0.15,79.25,19,30,80,10,30.22464,33.14727693,130.1886263,0
8.55,130.188705,33.147289,0.15,79.25,24,31,84,10,30.465401,33.14728651,130.1886197,0
8.7,130.188705,33.1473,0.15,78.19,24,31,84,10,30.70616,33.14729603,130.1886131,0
8.85,130.188705,33.1473,0.15,78.19,29,34,92,10,31.0395205,33.14730587,130.1886067,0
9,130.188705,33.147312,0.15,78.19,32,33,94,10,30.891359,33.1473158,130.1886003,0
9.15,130.188705,33.147323,0.15,76.75,39,31,99,10,31.3451005,33.14732578,130.1885937,0
9.3,130.188705,33.147331,0.15,76.75,39,31,99,10,31.53956,33.14733567,130.1885871,0
9.45,130.188705,33.147331,0.15,76.75,46,21,106,10,31.6784605,33.14734563,130.1885803,0
9.6,130.188705,33.147338,0.15,70.82,58,12,104,10,31.687719,33.14735568,130.1885732,0
9.75,130.188705,33.14735,0.15,70.82,34,-42,59,10,32.030339,33.14736568,130.1885662,0
9.9,130.18872,33.147361,0.15,70.82,34,-42,59,10,31.90996,33.14737573,130.1885591,0
10.05,130.18872,33.147361,0.15,71.44,17,-47,37,10,32.12294,33.14738585,130.1885521,0
10.2,130.18872,33.147361,0.15,71.44,11,-45,30,10,31.761801,33.14739593,130.1885451,0
10.35,130.18869,33.147403,0.15,83.13,12,-44,23,9,32.3914815,33.14740628,130.1885379,0
10.5,130.188644,33.14743,0.15,83.13,16,-44,23,9,32.2248,33.1474168,130.1885306,0
10.65,130.188644,33.14743,0.15,83.13,16,-41,24,8,31.3913995,33.14742664,130.1885235,0
10.8,130.188598,33.147457,0.15,84.69,16,-24,28,7,31.687719,33.14743667,130.188516,0
10.95,130.188598,33.147457,0.15,84.69,15,-4,37,7,30.5672595,33.1474463,130.1885089,22.65
11.1,130.188491,33.147514,0.15,85.07,15,-4,37,7,29.965361,33.14745567,130.188502,271.8
11.25,130.188491,33.147514,0.15,85.07,11,13,41,10,31.75254,33.14746533,130.1884948,294.45
11.4,130.188491,33.147514,0.15,85.07,7,19,41,10,32.687801,33.14747532,130.1884879,462.06
11.55,130.188446,33.147552,0.15,84.38,3,22,42,10,31.4840005,33.14748529,130.1884815,597.96
11.7,130.18843,33.147563,0.15,84.38,3,22,42,10,30.891359,33.14749467,130.1884753,661.38
11.85,130.18843,33.147563,0.15,84.38,0,22,47,10,30.6691195,33.14750388,130.1884691,525.48
12,130.188415,33.147579,0.15,84.44,-1,22,50,10,30.8358,33.14751317,130.1884626,348.81
12.15,130.1884,33.14759,0.15,84.44,-5,22,55,10,31.1506395,33.14752269,130.1884562,249.15
12.3,130.188385,33.147609,0.15,84.44,-5,22,55,10,31.50252,33.14753248,130.1884493,185.73
12.45,130.188385,33.147609,0.15,84.44,-5,19,60,10,31.87292,33.14754223,130.1884419,140.43
12.6,130.188385,33.147621,0.15,84.44,-5,17,63,10,32.280361,33.14755213,130.1884345,72.48
12.75,130.188385,33.147632,0.15,84.25,-4,14,67,10,32.6970595,33.14756226,130.1884266,56.625
12.9,130.188369,33.147647,0.15,84.25,-4,14,67,10,33.465641,33.14757295,130.1884187,45.3
13.05,130.188369,33.147647,0.15,84.25,-2,10,69,10,33.6415785,33.14758376,130.1884109,49.83
13.2,130.188369,33.147663,0.15,84,0,9,70,10,33.650841,33.14759473,130.1884029,54.36
13.35,130.188354,33.147678,0.15,84,3,6,72,10,33.9286405,33.14760567,130.1883953,56.625
13.5,130.188354,33.147697,0.15,84.19,3,6,72,10,34.724998,33.14761687,130.1883876,45.3
13.65,130.188354,33.147697,0.15,84.19,8,0,72,10,34.956501,33.14762823,130.1883798,49.83
13.8,130.188354,33.147697,0.15,84.19,9,-1,70,10,35.299122,33.14763935,130.1883719,54.36
13.95,130.188354,33.147697,0.15,84.44,10,4,67,10,35.3454185,33.14765066,130.1883639,45.3
14.1,130.188323,33.14775,0.15,84.44,10,4,67,10,35.651001,33.14766207,130.1883558,54.36
14.25,130.188323,33.14775,0.15,84.44,11,3,67,10,35.9750995,33.14767349,130.1883478,54.36
14.4,130.188308,33.147766,0.15,84.57,12,2,67,10,35.965839,33.14768498,130.1883396,63.42
14.55,130.188308,33.147785,0.15,84.57,12,6,66,10,36.2806815,33.14769658,130.1883313,61.155
14.7,130.188293,33.1478,0.15,84.57,12,6,66,10,36.965919,33.14770827,130.188323,77.01
14.85,130.188293,33.1478,0.15,84.5,10,9,64,10,37.2252005,33.14771983,130.1883148,86.07
15,130.188278,33.147811,0.15,84.5,9,9,64,10,37.280762,33.1477312,130.1883068,122.31
15.15,130.188278,33.147834,0.15,84.82,9,10,65,10,37.49374,33.14774268,130.1882986,120.045
15.3,130.188262,33.147857,0.15,84.82,9,10,65,10,37.632641,33.14775433,130.1882905,72.48
15.45,130.188262,33.147857,0.15,84.82,9,11,65,10,37.614119,33.14776601,130.1882823,77.01
15.6,130.188262,33.147872,0.15,84.19,10,10,66,10,38.00304,33.1477778,130.1882739,77.01
15.75,130.188232,33.147888,0.15,84.19,9,9,66,10,37.6604195,33.14778983,130.1882655,106.455
15.9,130.188232,33.147903,0.15,84.5,9,9,66,10,37.16964,33.1478015,130.188257,104.19
16.05,130.188232,33.147903,0.15,84.5,9,9,65,10,37.7159805,33.14781317,130.1882487,67.95
16.2,130.188232,33.147903,0.15,84.5,9,10,65,10,37.502998,33.14782473,130.1882404,67.95
16.35,130.188201,33.147937,0.15,84.38,10,10,66,10,37.29002,33.14783675,130.1882321,63.42
16.5,130.188201,33.147956,0.15,84.38,11,10,66,10,36.521439,33.1478487,130.1882238,63.42
16.65,130.188201,33.147956,0.15,84.38,11,7,67,10,36.651081,33.14786028,130.1882158,67.95
16.8,130.188186,33.147972,0.15,84.07,12,7,68,10,37.077042,33.14787192,130.1882077,54.36
16.95,130.188171,33.147987,0.15,84.07,13,5,68,10,37.243721,33.14788379,130.1881994,61.155
17.1,130.188171,33.148002,0.15,84.5,13,5,68,10,36.836281,33.14789558,130.1881917,54.36
17.25,130.188171,33.148002,0.15,84.5,12,7,65,10,36.8177605,33.14790713,130.1881844,70.215
17.4,130.188156,33.148021,0.15,84.5,12,8,64,10,36.965919,33.14791873,130.1881769,63.42
17.55,130.18814,33.148036,0.15,84.32,10,9,63,10,36.9751795,33.1479306,130.1881695,61.155
17.7,130.188125,33.148052,0.15,84.32,10,9,63,10,36.98444,33.14794262,130.1881618,58.89
17.85,130.188125,33.148052,0.15,84.32,9,7,63,10,37.0307405,33.14795478,130.1881541,56.625
18,130.188125,33.148052,0.15,84.32,9,8,63,10,37.095558,33.1479671,130.1881463,72.48
18.15,130.188125,33.148052,0.15,84.69,9,9,64,10,37.243721,33.1479792,130.1881385,72.48
18.3,130.188125,33.148052,0.15,84.69,9,8,64,10,37.336319,33.14799132,130.1881308,86.07
18.45,130.188125,33.148052,0.15,84.69,9,8,64,10,37.39188,33.14800357,130.1881227,81.54
18.6,130.188079,33.148117,0.15,84.57,8,5,63,10,37.428921,33.14801572,130.1881146,77.01
18.75,130.188064,33.148132,0.15,84.44,8,5,63,10,37.49374,33.14802783,130.1881065,61.155
18.9,130.188064,33.148132,0.15,84.44,8,5,63,10,37.5956,33.14804002,130.1880984,49.83
19.05,130.188064,33.148132,0.15,84.44,7,5,62,10,37.641901,33.14805232,130.1880902,63.42
19.2,130.188064,33.148132,0.15,84.44,7,4,61,10,37.706718,33.14806462,130.1880818,63.42
19.35,130.188034,33.148185,0.15,84.82,7,6,61,10,37.7159785,33.14807692,130.1880735,63.42
19.5,130.188034,33.148185,0.15,84.82,7,6,61,10,37.688202,33.14808925,130.1880653,63.42
19.65,130.188034,33.148185,0.15,84.63,6,7,61,10,37.725239,33.14810153,130.1880574,61.155
19.8,130.188003,33.148216,0.15,84.63,5,7,61,10,37.669682,33.14811368,130.1880494,77.01
19.95,130.187988,33.148231,0.15,84.75,5,7,61,10,37.89192,33.14812584,130.1880412,83.805
20.1,130.187973,33.14825,0.15,84.75,4,7,61,10,37.947479,33.14813802,130.1880329,86.07
20.25,130.187973,33.14825,0.15,84.75,4,9,61,10,37.9659995,33.14815033,130.1880244,79.275
20.4,130.187957,33.148269,0.15,84.32,4,8,60,10,37.891918,33.14816248,130.188016,77.01
20.55,130.187957,33.148284,0.15,84.32,3,6,59,10,38.2160205,33.14817473,130.1880076,77.01
20.7,130.187942,33.1483,0.15,84.88,2,6,59,10,37.873402,33.14818703,130.1879991,77.01
20.85,130.187942,33.1483,0.15,84.88,2,7,60,10,38.2252805,33.14819938,130.1879906,72.48
21,130.187927,33.148315,0.15,84.88,2,8,60,10,38.20676,33.14821175,130.187982,58.89
21.15,130.187911,33.14833,0.15,84.44,1,9,60,10,38.1234185,33.14822408,130.1879734,70.215
21.3,130.187896,33.148349,0.15,84.44,1,9,60,10,38.262321,33.14823647,130.1879646,77.01
21.45,130.187896,33.148349,0.15,84.44,1,8,60,10,38.29936,33.14824882,130.187956,77.01
21.6,130.187881,33.148365,0.15,84.38,0,8,60,10,38.429001,33.14826125,130.1879474,72.48
21.75,130.187866,33.14838,0.15,84.38,0,6,60,10,38.493818,33.14827387,130.1879387,67.95
21.9,130.18785,33.148399,0.15,84.69,0,6,60,10,38.447521,33.14828637,130.1879298,72.48
22.05,130.18785,33.148399,0.15,84.69,0,6,61,10,38.5123385,33.14829903,130.1879209,88.335
22.2,130.18785,33.148399,0.15,84.69,0,7,62,10,38.55864,33.14831187,130.187912,81.54
22.35,130.18785,33.148399,0.15,84.69,0,7,62,10,38.4567815,33.14832464,130.1879031,72.48
22.5,130.18785,33.148399,0.15,84.44,0,8,62,10,38.632721,33.14833735,130.1878943,67.95
22.65,130.18782,33.148448,0.15,84.44,0,7,62,10,38.3271385,33.14834988,130.1878857,56.625
22.8,130.18782,33.148448,0.15,84.44,0,8,62,10,38.077122,33.14836243,130.1878771,81.54
22.95,130.18782,33.148448,0.15,85.07,0,10,63,10,38.6512415,33.14837536,130.1878684,67.95
23.1,130.187789,33.148502,0.15,84.57,0,10,63,10,38.280842,33.14838803,130.1878599,86.07
23.25,130.187789,33.148502,0.15,84.57,0,11,63,10,38.3178805,33.14840063,130.1878514,90.6
23.4,130.187774,33.148517,0.15,84.57,0,10,63,10,38.429001,33.14841298,130.1878429,86.07
23.55,130.187759,33.148532,0.15,84.44,0,12,64,10,38.2993585,33.14842519,130.1878343,90.6
23.7,130.187759,33.148548,0.15,84.44,0,12,64,10,38.354919,33.14843732,130.1878257,90.6
23.85,130.187759,33.148548,0.15,84.44,0,11,64,10,38.419741,33.14844954,130.1878169,72.48
24,130.187744,33.148563,0.15,84.32,0,9,64,10,38.429001,33.14846177,130.187808,86.07
24.15,130.187728,33.148578,0.15,84.32,0,8,65,10,38.438261,33.14847397,130.1877993,83.805
24.3,130.187713,33.148597,0.15,84.57,0,8,65,10,38.39196,33.14848613,130.1877906,72.48
24.45,130.187713,33.148597,0.15,84.57,0,9,66,10,38.3641795,33.14849818,130.1877821,67.95
24.6,130.187698,33.148612,0.15,84.57,0,8,66,10,38.39196,33.14851017,130.1877734,67.95
24.75,130.187698,33.148628,0.15,84.19,0,7,65,10,38.4475215,33.14852223,130.1877647,72.48
24.9,130.187683,33.148643,0.15,84.19,0,7,65,10,38.484558,33.14853428,130.187756,63.42
25.05,130.187683,33.148643,0.15,84.19,0,7,65,10,38.4752995,33.14854646,130.1877472,56.625
25.2,130.187667,33.148662,0.15,84.25,0,6,65,10,38.76236,33.14855855,130.1877384,58.89
25.35,130.187652,33.148677,0.15,84.25,0,5,64,10,38.5030805,33.14857048,130.1877296,77.01
25.5,130.187652,33.148696,0.15,84.57,0,5,64,10,38.57716,33.1485826,130.1877206,77.01
25.65,130.187652,33.148696,0.15,84.57,0,6,63,10,38.6605,33.14859478,130.1877117,72.48
25.8,130.187652,33.148696,0.15,84.57,0,6,63,10,38.669762,33.14860692,130.187703,63.42
25.95,130.187652,33.148696,0.15,84.44,0,6,63,10,38.7438395,33.14861909,130.1876945,70.215
26.1,130.187652,33.148696,0.15,84.44,0,6,63,10,38.743839,33.14863122,130.187686,72.48
26.25,130.187652,33.148696,0.15,84.44,-2,7,62,10,38.78088,33.1486434,130.1876775,74.745
26.4,130.187652,33.148696,0.15,84.32,-2,7,62,10,38.817921,33.14865572,130.1876691,67.95
26.55,130.187652,33.148696,0.15,84.32,-2,7,63,10,38.78088,33.14866808,130.1876606,74.745
26.7,130.187652,33.148696,0.15,84.32,-2,7,63,10,38.743839,33.14868053,130.1876521,77.01
26.85,130.187652,33.148696,0.15,84.19,-2,9,63,10,38.706799,33.14869293,130.1876435,88.335
27,130.187652,33.148696,0.15,84.19,-3,9,64,10,39.021641,33.14870535,130.1876349,72.48
27.15,130.187652,33.148696,0.15,84.69,-3,8,65,10,38.6605,33.14871767,130.1876263,79.275
27.3,130.187652,33.148696,0.15,84.69,-3,8,65,10,38.688278,33.14873008,130.1876178,72.48
27.45,130.187652,33.148696,0.15,84.69,-4,9,65,10,38.7530995,33.14874255,130.187609,74.745
27.6,130.187652,33.148696,0.15,84.5,-3,9,66,10,38.688278,33.14875502,130.1876003,77.01
27.75,130.187652,33.148696,0.15,84.5,-2,10,66,10,38.7438395,33.14876747,130.1875914,79.275
27.9,130.187652,33.148696,0.15,84.5,-2,10,66,10,38.706799,33.14877977,130.1875826,81.54
28.05,130.187652,33.148696,0.15,84.5,-2,10,66,10,38.7530995,33.14879217,130.187574,77.01
28.2,130.187652,33.148696,0.15,84.5,-2,12,66,10,38.743839,33.14880447,130.1875654,77.01
28.35,130.187469,33.148933,0.15,84.07,-1,12,66,10,38.743839,33.14881679,130.1875567,72.48
28.5,130.187469,33.148948,0.15,84.07,-1,12,66,10,38.725319,33.14882913,130.187548,77.01
28.65,130.187469,33.148948,0.15,84.07,-1,9,66,10,38.706799,33.14884142,130.1875395,79.275
28.8,130.187454,33.148963,0.15,84.44,-1,10,66,10,38.725319,33.14885372,130.187531,81.54
28.95,130.187438,33.148979,0.15,84.44,-1,10,66,10,38.7438395,33.14886603,130.1875224,74.745
29.1,130.187438,33.148994,0.15,84.32,-1,10,66,10,38.76236,33.14887837,130.1875139,58.89
29.25,130.187438,33.148994,0.15,84.32,-1,7,66,10,38.76236,33.1488908,130.1875051,65.685
29.4,130.187408,33.149013,0.15,84.32,0,6,66,10,38.725319,33.14890318,130.1874963,63.42
29.55,130.187408,33.149028,0.15,84.57,0,6,66,10,38.6975385,33.14891543,130.1874873,56.625
29.7,130.187393,33.149044,0.15,84.57,0,6,66,10,38.669762,33.14892755,130.1874783,49.83
29.85,130.187393,33.149044,0.15,84.57,0,6,66,10,38.6975385,33.14893974,130.1874694,54.36
30,130.187393,33.149044,0.15,84.57,0,5,66,10,38.706799,33.14895203,130.1874602,67.95
30.15,130.187377,33.149078,0.15,84.44,0,5,67,10,38.7623595,33.14896424,130.1874512,54.36
30.3,130.187377,33.149078,0.15,84.44,0,5,67,10,38.484558,33.14897653,130.1874423,58.89
30.45,130.187377,33.149078,0.15,84.44,0,7,67,10,38.530859,33.14898878,130.1874334,67.95
30.6,130.187377,33.149078,0.15,84.44,0,6,67,10,38.55864,33.14900115,130.1874244,67.95
30.75,130.187377,33.149078,0.15,84.69,1,6,67,10,38.4475215,33.14901357,130.1874156,74.745
30.9,130.187377,33.149078,0.15,84.69,1,6,67,10,38.466042,33.14902602,130.1874068,67.95
31.05,130.187377,33.149078,0.15,84.69,1,8,67,10,38.4104805,33.14903838,130.1873981,72.48
31.2,130.187377,33.149078,0.15,84.63,1,8,67,10,38.336399,33.14905075,130.1873893,67.95
31.35,130.187316,33.149177,0.15,84.63,1,7,67,10,38.2160205,33.14906304,130.1873806,72.48
31.5,130.187301,33.149196,0.15,84.88,2,7,67,10,38.095638,33.14907547,130.1873717,72.48
31.65,130.187301,33.149196,0.15,84.88,2,8,68,10,37.98452,33.14908783,130.1873628,72.48
31.8,130.187286,33.149211,0.15,84.88,2,10,68,10,37.891918,33.14910012,130.187354,63.42
31.95,130.187271,33.149227,0.15,84.5,2,9,69,10,37.891918,33.1491123,130.1873452,65.685
32.1,130.187271,33.149242,0.15,84.5,2,9,69,10,37.836361,33.14912443,130.1873364,77.01
32.25,130.187271,33.149242,0.15,84.5,2,9,69,10,37.8085805,33.1491366,130.1873277,67.95
32.4,130.187255,33.149261,0.15,84.88,2,8,69,10,37.743759,33.1491487,130.187319,67.95
32.55,130.18724,33.149276,0.15,84.88,3,8,68,10,37.6604215,33.14916101,130.18731,67.95
32.7,130.187225,33.149295,0.15,84.63,3,8,68,10,37.5956,33.14917325,130.187301,67.95
32.85,130.187225,33.149295,0.15,84.63,3,8,67,10,37.558559,33.14918529,130.1872921,70.215
33,130.187225,33.149311,0.15,84.63,3,8,67,10,37.540039,33.14919733,130.1872835,72.48
33.15,130.18721,33.149326,0.15,84.82,4,7,67,10,37.540039,33.14920955,130.1872748,56.625
33.3,130.187194,33.149345,0.15,84.82,4,7,67,10,37.484482,33.14922187,130.1872659,67.95
33.45,130.187194,33.149345,0.15,84.82,4,8,68,10,37.4844795,33.14923416,130.1872569,65.685
33.6,130.187194,33.149364,0.15,84.69,4,9,68,10,37.428921,33.14924647,130.1872477,67.95
33.75,130.187194,33.149364,0.15,84.69,4,8,68,10,37.447441,33.14925862,130.1872389,67.95
33.9,130.187194,33.149364,0.15,84.69,4,8,68,10,37.447441,33.14927085,130.1872301,63.42
34.05,130.187194,33.149364,0.15,84.69,6,8,69,10,37.503,33.14928326,130.1872211,63.42
34.2,130.187194,33.149364,0.15,84.69,6,9,69,10,37.484482,33.14929577,130.1872121,58.89
34.35,130.187194,33.149364,0.15,84.94,7,9,69,10,37.465961,33.14930805,130.1872032,65.685
34.5,130.187194,33.149364,0.15,84.94,7,9,69,10,37.447441,33.14932032,130.1871945,67.95
34.65,130.187194,33.149364,0.15,84.94,6,11,70,10,37.503,33.14933259,130.1871859,67.95
34.8,130.187133,33.149463,0.15,84.57,7,11,69,10,37.558559,33.14934467,130.1871774,72.48
34.95,130.187133,33.149463,0.15,84.57,7,10,69,10,37.641901,33.14935682,130.1871687,70.215
35.1,130.187103,33.149494,0.15,84.5,7,10,69,10,37.651161,33.14936915,130.18716,67.95
35.25,130.187103,33.149494,0.15,84.5,7,10,68,10,37.7808,33.14938173,130.1871512,77.01
35.4,130.187088,33.149513,0.15,84.5,6,11,68,10,37.79932,33.1493943,130.1871424,77.01
35.55,130.187072,33.149528,0.15,84.5,6,9,67,10,37.79932,33.14940679,130.1871337,72.48
35.7,130.187072,33.149528,0.15,84.5,6,9,67,10,37.79932,33.1494193,130.1871251,63.42
35.85,130.187072,33.149528,0.15,84.5,6,7,67,10,37.7993205,33.14943157,130.1871165,63.42
36,130.187057,33.149559,0.15,84.32,6,7,67,10,37.891918,33.14944418,130.1871077,49.83
36.15,130.187042,33.149574,0.15,84.32,6,8,66,10,37.8641415,33.14945673,130.1870989,58.89
36.3,130.187026,33.149593,0.15,84.44,6,8,66,10,37.928959,33.1494693,130.1870901,49.83
36.45,130.187026,33.149593,0.15,84.44,6,7,65,10,37.891918,33.14948185,130.1870815,67.95
36.6,130.187026,33.149608,0.15,84.44,5,7,64,10,37.891918,33.14949442,130.1870729,58.89
36.75,130.187026,33.149608,0.15,84.82,5,8,64,10,37.88266,33.14950694,130.1870643,58.89
36.9,130.186996,33.149639,0.15,84.82,5,8,64,10,37.910439,33.14951953,130.1870558,63.42
37.05,130.186996,33.149639,0.15,84.82,4,10,64,10,37.9011785,33.14953225,130.1870472,67.95
37.2,130.186996,33.14965,0.15,84.57,4,9,64,10,37.928959,33.14954487,130.1870388,72.48
37.35,130.186981,33.149669,0.15,84.57,4,8,64,10,37.910439,33.14955745,130.1870303,79.275
37.5,130.186965,33.149684,0.15,84.44,3,8,64,10,37.910439,33.14957013,130.1870217,72.48
37.65,130.186965,33.149684,0.15,84.44,3,8,65,10,37.873402,33.14958283,130.1870131,63.42
37.8,130.18695,33.1497,0.15,84.44,3,7,65,10,37.854881,33.14959553,130.1870043,58.89
37.95,130.18695,33.1497,0.15,84.44,3,7,66,10,37.854881,33.14960811,130.1869956,65.685
38.1,130.18695,33.1497,0.15,84.44,3,7,66,10,37.836361,33.1496206,130.186987,54.36
38.25,130.18695,33.1497,0.15,84.63,4,8,67,10,37.7437595,33.14963293,130.1869784,58.89
38.4,130.18695,33.1497,0.15,84.44,3,9,67,10,37.651161,33.14964532,130.1869698,45.3
38.55,130.186904,33.149765,0.15,84.44,3,8,67,10,37.5678195,33.14965751,130.1869612,58.89
38.7,130.186889,33.14978,0.15,84.44,3,8,67,10,37.540039,33.14966962,130.1869528,63.42
38.85,130.186889,33.14978,0.15,84.44,2,6,69,10,37.49374,33.14968173,130.1869445,70.215
39,130.186889,33.14978,0.15,84.44,1,5,70,10,37.465961,33.14969393,130.1869362,58.89
39.15,130.186889,33.14978,0.15,84.44,1,7,71,10,37.1140805,33.14970602,130.186928,63.42
39.3,130.186859,33.149833,0.15,84.44,1,7,71,10,37.151119,33.14971812,130.1869198,58.89
39.45,130.186859,33.149833,0.15,84.44,0,8,72,10,37.1511195,33.14973025,130.1869117,63.42
39.6,130.186859,33.149848,0.15,84.69,0,8,73,10,37.262241,33.1497424,130.1869036,58.89
39.75,130.186859,33.149848,0.15,84.69,0,7,74,10,37.2715,33.14975467,130.1868954,61.155
39.9,130.186843,33.149883,0.15,84.75,0,7,74,10,36.539959,33.14976683,130.1868874,58.89
40.05,130.186843,33.149883,0.15,84.75,-1,5,78,10,37.10482,33.14977917,130.1868793,70.215
40.2,130.186843,33.149898,0.15,84.75,0,7,85,10,37.151119,33.14979175,130.1868712,67.95
40.35,130.186843,33.149917,0.15,84.69,1,7,88,10,36.438101,33.14980431,130.1868634,81.54
40.5,130.186828,33.149936,0.15,84.69,1,7,88,10,36.947399,33.14981687,130.1868554,54.36
40.65,130.186828,33.149936,0.15,84.69,6,7,93,10,36.3547595,33.14982943,130.1868477,67.95
40.8,130.186828,33.149951,0.15,83.94,8,7,94,10,36.521439,33.14984202,130.1868401,63.42
40.95,130.186828,33.149967,0.15,83.94,13,6,89,10,36.067699,33.14985464,130.1868328,67.95
41.1,130.186813,33.149982,0.15,84.44,17,6,89,10,36.076962,33.14986735,130.1868255,67.95
41.25,130.186813,33.149982,0.15,84.44,17,6,81,10,35.6973,33.14987996,130.1868185,77.01
41.4,130.186813,33.150001,0.15,84.44,18,6,76,10,35.317638,33.14989242,130.1868117,81.54
41.55,130.186798,33.150016,0.15,84.44,18,5,69,10,35.1787395,33.14990459,130.186805,79.275
41.7,130.186798,33.150028,0.15,84.44,18,5,69,10,35.058361,33.14991677,130.1867984,67.95
41.85,130.186798,33.150028,0.15,84.44,16,5,63,10,34.762039,33.14992899,130.1867919,72.48
42,130.186782,33.150043,0.15,84.32,10,5,59,10,34.521278,33.14994098,130.1867856,72.48
42.15,130.186767,33.150058,0.15,84.32,7,6,59,10,34.4009,33.14995293,130.1867794,79.275
42.3,130.186752,33.15007,0.15,84.32,7,6,59,10,33.928638,33.14996488,130.1867735,99.66
42.45,130.186752,33.15007,0.15,84.32,0,7,64,10,33.484159,33.14997679,130.1867679,95.13
42.6,130.186737,33.150089,0.15,84.32,-4,8,77,10,32.724838,33.14998857,130.1867622,95.13
42.75,130.186737,33.150089,0.15,84.32,-6,9,83,10,33.1693195,33.15000028,130.1867565,79.275
42.9,130.186737,33.150089,0.15,84.32,-6,9,83,10,32.81744,33.15001167,130.1867513,90.6
43.05,130.186737,33.150089,0.15,84.69,-6,9,96,10,32.3451785,33.15002278,130.1867465,88.335
43.2,130.186737,33.150089,0.15,84.94,-3,9,107,10,32.24332,33.1500339,130.1867417,90.6
43.35,130.186737,33.150089,0.15,84.94,-1,10,111,10,31.7617995,33.15004486,130.186737,90.6
43.5,130.186737,33.150089,0.15,84.94,-1,10,111,10,31.261761,33.1500558,130.1867324,95.13
43.65,130.186737,33.150089,0.15,84.32,3,9,116,10,31.0858205,33.15006676,130.1867278,90.6
43.8,130.186752,33.150165,0.15,84.32,11,10,116,10,30.595039,33.15007768,130.1867234,81.54
43.95,130.186752,33.150177,0.15,83.94,15,10,114,10,30.215381,33.15008855,130.186719,83.805
44.1,130.186752,33.150188,0.15,83.94,15,10,114,10,29.872761,33.15009938,130.1867145,67.95
44.25,130.186752,33.150188,0.15,83.94,21,11,104,10,29.64126,33.15010986,130.1867102,74.745
44.4,130.186752,33.150199,0.15,83.38,27,7,91,10,29.3542,33.15012027,130.1867058,58.89
44.55,130.186752,33.150207,0.15,83.38,27,7,86,10,29.0301,33.15013054,130.1867014,65.685
44.7,130.186737,33.150218,0.15,84,27,7,86,10,28.5208,33.15014045,130.1866971,58.89
44.85,130.186737,33.150218,0.15,84,28,8,80,10,28.243,33.15015029,130.1866925,47.565
45,130.186737,33.15023,0.15,84,28,10,79,10,27.46516,33.15016003,130.1866876,63.42
45.15,130.186737,33.150241,0.15,83.38,28,9,79,10,27.0669805,33.15016938,130.1866828,56.625
45.3,130.186721,33.150253,0.15,83.38,28,9,79,10,26.909559,33.1501782,130.1866779,54.36
45.45,130.186721,33.150253,0.15,83.38,29,9,79,10,26.066899,33.15018676,130.1866731,49.83
45.6,130.186721,33.150264,0.15,82.57,31,9,79,10,25.909479,33.15019527,130.1866683,45.3
45.75,130.186706,33.150276,0.15,82.57,33,8,77,10,25.2149805,33.15020354,130.1866635,52.095
45.9,130.186706,33.150287,0.15,82.69,33,8,77,10,24.76124,33.1502118,130.1866588,31.71
46.05,130.186706,33.150287,0.15,82.69,34,7,71,10,23.8815395,33.15021957,130.1866537,33.975
46.2,130.186691,33.150295,0.15,82.69,36,6,63,10,22.89072,33.15022687,130.1866487,31.71
46.35,130.186691,33.150306,0.15,82.69,37,6,59,10,22.1591795,33.1502336,130.1866431,36.24
46.5,130.186676,33.150314,0.15,82.69,37,6,59,10,21.46468,33.15024007,130.1866375,31.71
46.65,130.186676,33.150314,0.15,82.69,38,6,51,10,20.3997805,33.15024604,130.1866316,38.505
46.8,130.18666,33.150325,0.15,82.19,40,8,46,10,20.11272,33.15025175,130.1866253,49.83
46.95,130.186645,33.150333,0.15,82.19,41,7,42,10,19.2793195,33.15025684,130.1866187,43.035
47.1,130.18663,33.150341,0.15,81.44,41,7,42,10,19.37192,33.15026175,130.1866117,58.89
47.25,130.18663,33.150341,0.15,81.44,44,5,31,10,18.140341,33.15026613,130.186605,54.36
47.4,130.186614,33.150344,0.15,81.44,46,1,15,10,16.79764,33.15027007,130.1865987,54.36
47.55,130.186599,33.150348,0.15,81.32,46,1,6,10,16.5291005,33.15027348,130.1865927,54.36
47.7,130.186569,33.150348,0.15,81.32,46,1,6,10,16.00128,33.15027647,130.1865867,58.89
47.85,130.186569,33.150348,0.15,81.32,47,1,-6,10,15.01972,33.15027883,130.1865809,43.035
48,130.186553,33.150348,0.15,80.63,49,0,-15,10,13.72332,33.15028112,130.1865751,58.89
48.15,130.186538,33.150348,0.15,80.63,50,0,-20,10,13.31588,33.15028287,130.1865696,54.36
48.3,130.186523,33.150341,0.15,79.63,50,0,-20,10,12.16764,33.15028415,130.1865643,67.95
48.45,130.186523,33.150341,0.15,79.63,53,-5,-34,10,12.2695,33.15028493,130.186559,65.685
48.6,130.186508,33.150333,0.15,79.63,55,-15,-54,10,12.09356,33.15028508,130.186554,67.95
48.75,130.186477,33.150325,0.15,79.13,54,-22,-66,10,12.1769,33.15028443,130.1865489,61.155
48.9,130.186477,33.15031,0.15,79.13,54,-22,-66,10,12.09356,33.1502833,130.1865441,58.89
49.05,130.186462,33.15031,0.15,79.13,49,-32,-86,10,11.51944,33.15028155,130.1865396,63.42
49.2,130.186447,33.150299,0.15,80.63,46,-34,-99,10,11.44536,33.15027992,130.1865349,63.42
49.35,130.186447,33.150276,0.15,80.63,44,-34,-103,10,11.87132,33.15027828,130.18653,79.275
49.5,130.186447,33.150257,0.15,80.63,44,-34,-103,10,11.27868,33.15027657,130.1865255,86.07
49.65,130.186447,33.150257,0.15,81.75,43,-28,-105,10,11.13978,33.15027468,130.1865216,108.72
49.8,130.186447,33.150234,0.15,81.75,44,-19,-104,10,11.05644,33.15027227,130.1865183,117.78
49.95,130.186462,33.150215,0.15,81.82,44,-15,-103,10,11.07496,33.15026996,130.186515,138.165
50.1,130.186462,33.150196,0.15,81.82,44,-15,-103,10,11.0194,33.15026728,130.1865124,163.08
50.25,130.186462,33.150196,0.15,81.82,45,-7,-101,10,10.67678,33.15026442,130.1865106,172.14
50.4,130.186462,33.150177,0.15,81.75,47,1,-99,10,10.76012,33.15026117,130.1865095,172.14
50.55,130.186477,33.150161,0.15,81.75,49,4,-99,10,10.75086,33.15025776,130.1865087,174.405
50.7,130.186477,33.150161,0.15,81.75,49,4,-99,10,10.649,33.15025425,130.1865087,176.67
50.85,130.186477,33.150161,0.15,81.75,50,9,-100,10,10.76012,33.15025093,130.186509,167.61
51,130.186477,33.150161,0.15,81.75,51,10,-102,10,10.8342,33.15024745,130.1865097,154.02
51.15,130.186477,33.150161,0.15,81.75,51,14,-105,10,10.99162,33.15024352,130.1865115,144.96
51.3,130.186477,33.150161,0.15,81.44,51,14,-105,10,11.6676,33.15023937,130.1865133,126.84
51.45,130.186477,33.150161,0.15,81.44,51,22,-104,10,12.23246,33.15023514,130.1865154,140.43
51.6,130.186477,33.150161,0.15,81.44,49,24,-104,10,12.63064,33.15023097,130.1865178,140.43
51.75,130.186477,33.150161,0.15,81.32,46,25,-103,10,13.1029,33.15022648,130.1865205,122.31
51.9,130.186477,33.150161,0.15,81.32,44,25,-103,10,13.22328,33.1502219,130.1865234,126.84
52.05,130.186477,33.150161,0.15,81.32,44,29,-100,10,13.72332,33.15021724,130.1865269,108.72
52.2,130.186538,33.150062,0.15,81,42,31,-96,10,14.57524,33.15021233,130.1865306,90.6
52.35,130.186538,33.150054,0.15,80.19,41,32,-94,10,15.3253,33.15020754,130.1865343,88.335
52.5,130.186538,33.150051,0.15,80.19,41,32,-94,10,15.9272,33.15020275,130.186538,77.01
52.65,130.186538,33.150051,0.15,80.19,39,34,-88,10,16.205,33.15019825,130.1865419,56.625
52.8,130.186538,33.150043,0.15,79.5,38,38,-80,10,16.81616,33.15019358,130.1865458,36.24
52.95,130.186538,33.150032,0.15,79.5,37,39,-77,10,17.316199,33.15018889,130.1865498,36.24
53.1,130.186553,33.150024,0.15,79.5,37,39,-77,10,17.871799,33.15018392,130.1865541,31.71
53.25,130.186553,33.150024,0.15,78.75,38,39,-73,10,18.1588605,33.15017872,130.1865585,22.65
53.4,130.186553,33.150012,0.15,78.75,41,39,-72,10,18.723721,33.1501734,130.1865631,18.12
53.55,130.186553,33.150005,0.15,77.38,44,39,-73,10,19.0570805,33.15016801,130.186568,6.795
53.7,130.186553,33.149993,0.15,77.38,44,39,-73,10,19.61268,33.15016225,130.1865729,13.59
53.85,130.186553,33.149993,0.15,77.38,50,34,-78,10,20.2794,33.15015623,130.1865779,6.795
54,130.186553,33.149982,0.15,76.32,58,24,-87,10,20.334961,33.15015035,130.1865829,4.53
54.15,130.186553,33.149974,0.15,76.32,60,18,-92,10,20.6961005,33.15014435,130.186588,6.795
54.3,130.186569,33.149967,0.15,75.38,60,18,-92,10,21.09428,33.1501382,130.1865932,9.06
54.45,130.186569,33.149967,0.15,75.38,61,-1,-102,10,21.6591395,33.15013194,130.1865987,11.325
54.6,130.186569,33.149955,0.15,75.38,58,-12,-110,10,22.16844,33.15012552,130.1866043,22.65
54.75,130.186569,33.149948,0.15,75.13,57,-17,-114,10,22.668481,33.15011906,130.1866099,27.18
54.9,130.186584,33.149936,0.15,75.13,57,-17,-114,10,22.8722,33.15011247,130.1866154,36.24
55.05,130.186584,33.149936,0.15,75.13,51,-25,-121,10,23.1963,33.15010558,130.1866211,36.24
55.2,130.186599,33.149925,0.15,75.82,48,-28,-125,10,23.594481,33.15009855,130.1866268,36.24
55.35,130.186614,33.149909,0.15,75.82,47,-27,-126,10,24.15934,33.15009133,130.1866325,65.685
55.5,130.186614,33.149894,0.15,76.88,47,-27,-126,10,24.631599,33.1500841,130.1866382,58.89
55.65,130.186614,33.149894,0.15,76.88,44,-26,-128,10,25.002,33.15007651,130.1866441,63.42
55.8,130.18663,33.149883,0.15,76.88,40,-26,-133,10,25.44648,33.1500688,130.18665,72.48
55.95,130.18663,33.149864,0.15,79.07,38,-26,-136,10,25.84466,33.15006103,130.186656,72.48
56.1,130.186645,33.149848,0.15,79.07,38,-26,-136,10,26.46508,33.15005317,130.186662,90.6
56.25,130.186645,33.149848,0.15,79.07,33,-22,-140,10,26.8725195,33.15004529,130.1866684,110.985
56.4,130.18666,33.149837,0.15,80.94,29,-14,-140,10,27.409599,33.15003747,130.1866748,140.43
56.55,130.186676,33.149822,0.15,80.94,28,-11,-139,10,27.78926,33.15002927,130.1866815,147.225
56.7,130.186691,33.149814,0.15,80.94,28,-11,-139,10,28.1504,33.15002103,130.1866881,158.55
56.85,130.186691,33.149814,0.15,81.82,25,-7,-136,10,28.4745,33.15001283,130.1866948,156.285
57,130.186706,33.149806,0.15,81.82,22,-5,-133,10,29.15048,33.15000437,130.1867016,163.08
57.15,130.186706,33.149806,0.15,82.25,22,-4,-133,10,29.18752,33.14999578,130.1867085,176.67
57.3,130.186737,33.149787,0.15,82.25,22,-4,-133,10,29.298639,33.14998715,130.1867155,181.2
57.45,130.186737,33.149787,0.15,82.25,20,-3,-133,10,29.78942,33.14997841,130.1867226,183.465
57.6,130.186767,33.149776,0.15,83.19,16,-1,-133,10,30.20612,33.14996947,130.1867297,172.14
57.75,130.186767,33.149765,0.15,83.19,14,0,-132,10,30.3728,33.14996053,130.1867367,147.225
57.9,130.186782,33.149753,0.15,83.19,14,0,-132,10,30.576521,33.14995142,130.1867439,126.84
58.05,130.186782,33.149753,0.15,83.63,11,2,-130,10,30.9098795,33.14994212,130.1867513,129.105
58.2,130.186798,33.149742,0.15,83.63,9,3,-127,10,31.31732,33.14993243,130.1867586,122.31
58.35,130.186798,33.149742,0.15,84.44,10,3,-126,10,31.5488205,33.14992249,130.1867659,138.165
58.5,130.186798,33.149742,0.15,84.44,10,3,-126,10,31.650681,33.14991258,130.1867733,131.37
58.65,130.186798,33.149742,0.15,84.44,9,7,-126,10,31.9933005,33.14990232,130.1867811,133.635
58.8,130.186843,33.149703,0.15,84.82,8,9,-127,10,32.00256,33.14989193,130.1867888,135.9
58.95,130.186859,33.149696,0.15,84.82,7,9,-127,10,32.465561,33.14988153,130.1867966,131.37
59.1,130.186874,33.149684,0.15,84.94,7,9,-127,10,32.761879,33.14987103,130.1868043,131.37
59.25,130.186874,33.149684,0.15,84.94,5,11,-127,10,33.02116,33.14986038,130.1868122,124.575
59.4,130.186889,33.149673,0.15,84.94,3,10,-127,10,33.243401,33.14984952,130.1868201,108.72
59.55,130.186904,33.149665,0.15,84.94,2,8,-127,10,33.363779,33.14983829,130.1868281,101.925
59.7,130.18692,33.14965,0.15,84.94,2,8,-127,10,33.502682,33.14982692,130.1868361,117.78
59.85,130.18692,33.14965,0.15,84.94,0,7,-126,10,33.9656795,33.14981561,130.186844,110.985
60,130.186935,33.149642,0.15,84.82,-2,5,-125,10,34.41016,33.1498041,130.186852,81.54
60.15,130.186935,33.149642,0.15,84.82,-3,4,-124,10,34.80834,33.1497922,130.1868599,79.275
60.3,130.186935,33.149642,0.15,84.82,-3,4,-124,10,34.687962,33.14978033,130.1868679,72.48
60.45,130.186935,33.149642,0.15,84.94,-5,4,-121,10,34.752779,33.14976859,130.1868761,65.685
60.6,130.186981,33.1496,0.15,84.94,-4,5,-119,10,34.928719,33.1497568,130.1868844,63.42
60.75,130.186996,33.149589,0.15,85.75,-4,7,-118,10,35.01206,33.14974515,130.1868926,70.215
60.9,130.186996,33.149574,0.15,85.75,-4,7,-118,10,35.113918,33.14973362,130.186901,81.54
61.05,130.186996,33.149574,0.15,85.75,-4,9,-117,10,35.150959,33.14972223,130.1869093,81.54
61.2,130.187011,33.149559,0.15,85.19,-5,7,-117,10,35.150959,33.14971072,130.1869177,90.6
61.35,130.187026,33.149547,0.15,85.19,-5,8,-116,10,35.1139205,33.14969941,130.1869262,88.335
61.5,130.187042,33.149532,0.15,85.19,-5,8,-116,10,35.0028,33.14968828,130.1869346,104.19
61.65,130.187042,33.149532,0.15,85.19,-5,9,-115,10,35.0305805,33.14967703,130.186943,101.925
61.8,130.187042,33.149517,0.15,85.19,-4,7,-114,10,35.058361,33.14966583,130.1869513,99.66
61.95,130.187057,33.149501,0.15,85.5,-4,7,-113,10,35.2805995,33.14965477,130.1869597,99.66
62.1,130.187072,33.149486,0.15,85.5,-4,7,-113,10,35.428761,33.14964347,130.1869683,90.6
62.25,130.187072,33.149486,0.15,85.5,-3,8,-112,10,35.59544,33.14963201,130.1869766,65.685
62.4,130.187072,33.149471,0.15,85.57,-2,7,-111,10,35.688042,33.14962047,130.186985,67.95
62.55,130.187103,33.149456,0.15,85.57,-1,7,-110,10,35.8084205,33.14960898,130.1869932,86.07
62.7,130.187103,33.149436,0.15,85.5,-1,7,-110,10,35.928799,33.14959732,130.1870014,90.6
62.85,130.187103,33.149436,0.15,85.5,-1,8,-110,10,35.947319,33.14958561,130.1870097,77.01
63,130.187118,33.149425,0.15,85.5,0,9,-110,10,35.98436,33.14957395,130.1870179,67.95
63.15,130.187133,33.149406,0.15,85.38,0,8,-109,10,35.9658395,33.14956214,130.1870261,90.6
63.3,130.187133,33.149391,0.15,85.38,0,8,-109,10,36.0214,33.14955043,130.1870344,86.07
63.45,130.187133,33.149391,0.15,85.38,0,8,-109,10,36.0584415,33.14953864,130.1870426,79.275
63.6,130.187149,33.149375,0.15,85.44,1,6,-108,10,36.095482,33.1495266,130.1870509,86.07
63.75,130.187164,33.149356,0.15,85.44,2,7,-108,10,36.10474,33.14951461,130.1870591,77.01
63.9,130.187164,33.149345,0.15,85.57,2,7,-108,10,36.151039,33.14950265,130.1870674,99.66
64.05,130.187164,33.149345,0.15,85.57,2,8,-108,10,36.1788195,33.14949066,130.1870754,88.335
64.2,130.187179,33.149326,0.15,85.57,3,6,-107,10,36.2066,33.1494787,130.1870836,81.54
64.35,130.187194,33.149311,0.15,85.63,4,6,-107,10,36.252901,33.14946662,130.1870917,77.01
64.5,130.187194,33.149291,0.15,85.63,4,6,-107,10,36.280682,33.14945463,130.1870997,77.01
64.65,130.187194,33.149291,0.15,85.63,4,9,-108,10,36.243641,33.14944271,130.1871078,83.805
64.8,130.18721,33.149276,0.15,85.57,5,9,-109,10,36.280682,33.14943095,130.1871158,86.07
64.95,130.187225,33.149261,0.15,85.57,5,10,-110,10,36.243641,33.1494191,130.1871237,99.66
65.1,130.187225,33.149242,0.15,85.07,5,10,-110,10,36.18808,33.14940738,130.1871316,86.07
65.25,130.187225,33.149242,0.15,85.07,5,12,-109,10,36.0769595,33.14939588,130.1871395,88.335
65.4,130.18724,33.14923,0.15,85.07,5,11,-109,10,35.965839,33.14938433,130.1871474,86.07
65.55,130.187255,33.149215,0.15,85.38,5,9,-109,10,35.863979,33.14937266,130.1871553,95.13
65.7,130.187271,33.1492,0.15,85.38,5,9,-109,10,35.743599,33.14936097,130.1871631,113.25
65.85,130.187271,33.1492,0.15,85.38,6,5,-109,10,35.725079,33.14934932,130.187171,88.335
66,130.187286,33.149185,0.15,85.5,5,7,-111,10,35.743599,33.14933767,130.1871788,72.48
66.15,130.187286,33.149166,0.15,85.5,5,7,-111,10,35.80842,33.14932597,130.1871868,74.745
66.3,130.187301,33.14915,0.15,85.69,5,7,-111,10,35.854721,33.14931442,130.1871946,67.95
66.45,130.187301,33.14915,0.15,85.69,5,7,-111,10,35.9288005,33.14930284,130.1872025,74.745
66.6,130.187316,33.149131,0.15,85.69,5,10,-111,10,36.058441,33.14929138,130.1872105,67.95
66.75,130.187316,33.149116,0.15,85.19,6,10,-110,10,36.40106,33.14927983,130.1872185,70.215
66.9,130.187332,33.149101,0.15,85.19,6,10,-110,10,36.262161,33.14926833,130.1872265,81.54
67.05,130.187332,33.149101,0.15,85.19,6,7,-110,10,36.59552,33.14925653,130.1872346,106.455
67.2,130.187347,33.149082,0.15,85.38,6,8,-110,10,36.743679,33.14924483,130.1872428,117.78
67.35,130.187362,33.149066,0.15,85.38,7,8,-109,10,36.78072,33.14923319,130.1872509,104.19
67.5,130.187362,33.149051,0.15,85.38,7,8,-109,10,36.854801,33.1492215,130.187259,95.13
67.65,130.187362,33.149051,0.15,85.38,7,4,-110,10,36.97518,33.14920962,130.1872672,97.395
67.8,130.187377,33.149036,0.15,85.38,8,6,-111,10,37.058521,33.14919753,130.1872755,99.66
67.95,130.187393,33.149017,0.15,85.19,8,7,-111,10,37.1140785,33.14918564,130.1872839,81.54
68.1,130.187408,33.149002,0.15,85.19,8,7,-111,10,37.502998,33.14917367,130.1872924,81.54
68.25,130.187408,33.149002,0.15,85.19,6,7,-112,10,37.4474395,33.14916163,130.1873009,90.6
68.4,130.187408,33.148983,0.15,85.38,6,8,-112,10,37.61412,33.14914943,130.1873096,108.72
68.55,130.187438,33.148967,0.15,85.38,6,8,-112,10,37.725241,33.14913735,130.1873184,95.13
68.7,130.187454,33.148952,0.15,85.57,6,8,-112,10,37.854881,33.14912537,130.1873272,90.6
68.85,130.187454,33.148952,0.15,85.57,6,7,-111,10,37.9474795,33.14911351,130.1873358,104.19
69,130.187454,33.148937,0.15,85.57,5,9,-111,10,38.00304,33.14910177,130.1873445,126.84
69.15,130.187469,33.148914,0.15,85.5,5,9,-111,10,38.040081,33.14908969,130.1873534,108.72
69.3,130.187484,33.148899,0.15,85.5,5,9,-111,10,38.077122,33.14907755,130.1873622,104.19
69.45,130.187484,33.148899,0.15,85.5,5,9,-111,10,38.4938205,33.14906539,130.1873711,90.6
69.6,130.1875,33.148883,0.15,85.38,4,10,-110,10,38.55864,33.1490533,130.1873799,99.66
69.75,130.1875,33.148868,0.15,85.38,4,11,-110,10,38.68828,33.14904113,130.1873888,95.13
69.9,130.187515,33.148849,0.15,85.32,4,11,-110,10,38.78088,33.14902872,130.1873979,104.19
70.05,130.187515,33.148849,0.15,85.32,4,10,-109,10,38.7530995,33.14901645,130.1874068,101.925
70.2,130.18753,33.14883,0.15,85.32,4,9,-109,10,38.76236,33.1490042,130.1874157,104.19
70.35,130.18753,33.14883,0.15,85.19,5,8,-108,10,38.8457015,33.14899177,130.1874246,99.66
70.5,130.18753,33.14883,0.15,85.19,6,8,-108,10,38.929039,33.14897943,130.1874334,81.54
70.65,130.18753,33.14883,0.15,85.19,6,7,-108,10,38.99386,33.14896706,130.1874421,88.335
70.8,130.187561,33.14878,0.15,85.25,6,9,-108,10,39.021641,33.14895478,130.1874506,90.6
70.95,130.187576,33.148765,0.15,85.25,6,9,-108,10,38.929039,33.14894234,130.1874593,92.865
71.1,130.187591,33.148746,0.15,85.32,6,9,-108,10,38.614201,33.14892985,130.1874679,72.48
71.25,130.187591,33.148746,0.15,85.32,7,8,-108,10,38.7530995,33.14891718,130.1874766,86.07
71.4,130.187606,33.148731,0.15,85.32,8,10,-108,10,38.743839,33.14890457,130.1874854,86.07
71.55,130.187606,33.148715,0.15,85.13,7,11,-110,10,38.76236,33.14889204,130.1874943,97.395
71.7,130.187622,33.1487,0.15,85.13,7,11,-110,10,38.743839,33.14887947,130.1875031,104.19
71.85,130.187622,33.1487,0.15,85.13,8,9,-110,10,38.4197405,33.14886693,130.1875118,104.19
72,130.187637,33.148685,0.15,85.19,7,9,-111,10,38.354919,33.14885432,130.1875204,108.72
72.15,130.187637,33.14867,0.15,85.19,7,9,-112,10,38.1975,33.14884167,130.187529,97.395
72.3,130.187652,33.148654,0.15,85.44,7,9,-112,10,38.16972,33.14882927,130.1875375,77.01
72.45,130.187652,33.148654,0.15,85.44,6,8,-112,10,38.0956405,33.14881683,130.187546,86.07
72.6,130.187667,33.148639,0.15,85.44,6,8,-113,10,38.021561,33.14880435,130.1875547,99.66
72.75,130.187683,33.148624,0.15,85.25,4,9,-113,10,37.632641,33.14879211,130.1875632,90.6
72.9,130.187683,33.148609,0.15,85.25,4,9,-113,10,37.280762,33.14877995,130.1875717,86.07
73.05,130.187683,33.148609,0.15,85.25,3,9,-114,10,37.29928,33.14876776,130.1875801,79.275
73.2,130.187698,33.148597,0.15,85.25,3,10,-113,10,37.262241,33.1487555,130.1875885,90.6
73.35,130.187713,33.148578,0.15,85.25,3,10,-113,10,37.2807595,33.14874318,130.1875971,95.13
73.5,130.187728,33.148563,0.15,85.19,3,10,-113,10,37.243721,33.14873092,130.1876056,95.13
73.65,130.187728,33.148563,0.15,85.19,2,9,-112,10,37.18816,33.1487188,130.1876141,95.13
73.8,130.187728,33.148548,0.15,85.19,2,7,-112,10,37.18816,33.14870672,130.1876225,104.19
73.95,130.187744,33.148532,0.15,85.5,2,6,-112,10,37.1048185,33.14869463,130.187631,95.13
74.1,130.187759,33.148517,0.15,85.5,2,6,-112,10,37.114079,33.14868255,130.1876393,77.01
74.25,130.187759,33.148517,0.15,85.5,2,7,-112,10,37.0585215,33.14867047,130.1876476,77.01
74.4,130.187774,33.148502,0.15,85.38,2,7,-111,10,37.114079,33.14865838,130.187656,72.48
74.55,130.187789,33.148483,0.15,85.38,2,5,-111,10,37.1233385,33.14864607,130.1876644,67.95
74.7,130.187805,33.148471,0.15,85.69,2,5,-111,10,37.16964,33.14863368,130.1876727,77.01
74.85,130.187805,33.148471,0.15,85.69,2,6,-111,10,37.151119,33.14862124,130.187681,81.54
75,130.187805,33.148452,0.15,85.69,2,7,-110,10,37.20668,33.14860875,130.1876895,86.07
75.15,130.18782,33.148437,0.15,85.63,1,8,-110,10,37.18816,33.14859631,130.1876981,90.6
75.3,130.187835,33.148418,0.15,85.63,1,8,-110,10,37.243721,33.14858382,130.1877065,90.6
75.45,130.187835,33.148418,0.15,85.63,1,10,-110,10,37.262241,33.14857139,130.1877149,97.395
75.6,130.18785,33.148403,0.15,85.5,1,11,-111,10,37.280762,33.14855878,130.1877234,90.6
75.75,130.18785,33.148387,0.15,85.5,2,11,-111,10,37.243721,33.14854643,130.1877319,95.13
75.9,130.187866,33.148372,0.15,85.63,2,11,-111,10,37.299278,33.14853403,130.1877404,104.19
76.05,130.187866,33.148372,0.15,85.63,2,11,-111,10,37.29002,33.1485217,130.187749,113.25
76.2,130.187881,33.148357,0.15,85.63,2,10,-110,10,37.299278,33.14850938,130.1877573,95.13
76.35,130.187881,33.148338,0.15,85.69,2,9,-110,10,37.5585595,33.14849692,130.1877656,95.13
76.5,130.187896,33.148323,0.15,85.69,2,9,-110,10,37.521519,33.1484843,130.187774,99.66
76.65,130.187896,33.148323,0.15,85.69,2,9,-111,10,37.49374,33.14847161,130.1877822,86.07
76.8,130.187911,33.148307,0.15,85.5,2,8,-110,10,37.37336,33.14845895,130.1877906,81.54
76.95,130.187927,33.148292,0.15,85.5,2,8,-110,10,37.354839,33.14844632,130.1877991,72.48
77.1,130.187942,33.148277,0.15,85.5,2,8,-110,10,37.37336,33.1484338,130.1878076,72.48
77.25,130.187942,33.148277,0.15,85.5,2,8,-110,10,37.4567015,33.14842162,130.187816,83.805
77.4,130.187957,33.148258,0.15,85.5,2,8,-110,10,37.57708,33.1484094,130.1878244,72.48
77.55,130.187957,33.148242,0.15,85.63,2,9,-110,10,37.632641,33.14839685,130.1878329,81.54
77.7,130.187957,33.148242,0.15,85.63,2,9,-110,10,37.706718,33.14838437,130.1878413,81.54
77.85,130.187957,33.148242,0.15,85.63,2,9,-109,10,37.6696815,33.14837208,130.1878497,74.745
78,130.187957,33.148242,0.15,85.63,2,9,-109,10,37.336319,33.14836007,130.1878581,86.07
78.15,130.188003,33.148197,0.15,85.5,2,9,-109,10,37.3733595,33.14834812,130.1878664,88.335
78.3,130.188003,33.148181,0.15,85.19,2,9,-109,10,37.465961,33.14833615,130.1878747,86.07
78.45,130.188003,33.148181,0.15,85.19,2,8,-110,10,37.484482,33.14832387,130.1878832,83.805
78.6,130.188018,33.148162,0.15,85.19,1,8,-109,10,37.558559,33.14831177,130.1878917,99.66
78.75,130.188034,33.148151,0.15,85,1,7,-109,10,37.5215185,33.14829957,130.1879002,86.07
78.9,130.188049,33.148132,0.15,85,1,7,-109,10,37.428921,33.14828748,130.1879087,77.01
79.05,130.188049,33.148132,0.15,85,1,7,-109,10,37.3270585,33.14827543,130.1879173,81.54
79.2,130.188049,33.148117,0.15,85.5,1,7,-109,10,37.317799,33.14826325,130.1879258,90.6
79.35,130.188064,33.148101,0.15,85.5,0,9,-109,10,37.5307785,33.1482511,130.1879344,90.6
79.5,130.188079,33.148082,0.15,85.57,1,9,-109,10,37.5956,33.1482387,130.1879433,81.54
79.65,130.188079,33.148082,0.15,85.57,1,10,-109,10,37.6604215,33.14822638,130.187952,86.07
79.8,130.188095,33.148071,0.15,85.57,1,11,-109,10,37.521519,33.14821425,130.1879606,90.6
79.95,130.18811,33.148056,0.15,85.13,1,9,-109,10,37.6048605,33.14820205,130.1879693,88.335
80.1,130.18811,33.14804,0.15,85.13,1,9,-109,10,37.5956,33.14818965,130.1879781,90.6
80.25,130.18811,33.14804,0.15,85.13,1,8,-109,10,37.67894,33.14817724,130.1879868,99.66
80.4,130.188125,33.148025,0.15,85.38,1,8,-110,10,37.76228,33.14816472,130.1879955,95.13
80.55,130.18814,33.148006,0.15,85.38,1,6,-110,10,37.8548815,33.14815236,130.1880041,90.6
80.7,130.18814,33.147991,0.15,85.38,1,6,-110,10,37.928959,33.14814002,130.1880127,90.6
80.85,130.18814,33.147991,0.15,85.38,1,7,-110,10,37.928959,33.14812787,130.1880212,81.54
81,130.188156,33.147975,0.15,85.38,0,8,-110,10,37.910439,33.14811578,130.1880299,77.01
81.15,130.188171,33.147956,0.15,85.07,0,8,-111,10,37.8178405,33.14810375,130.1880387,77.01
81.3,130.188186,33.147945,0.15,85.07,0,8,-111,10,37.891918,33.14809177,130.1880474,81.54
81.45,130.188186,33.147945,0.15,85.07,0,10,-111,10,37.9382195,33.1480798,130.188056,90.6
81.6,130.188201,33.147926,0.15,85.19,0,10,-110,10,37.966,33.14806783,130.1880645,99.66
81.75,130.188201,33.147911,0.15,85.19,0,10,-111,10,37.725239,33.14805598,130.188073,97.395
81.9,130.188217,33.147895,0.15,85.5,0,10,-111,10,37.632641,33.14804395,130.1880816,108.72
82.05,130.188217,33.147895,0.15,85.5,0,9,-110,10,37.6789395,33.14803171,130.1880902,95.13
82.2,130.188232,33.14788,0.15,85.5,0,9,-111,10,37.725239,33.14801957,130.1880988,86.07
82.35,130.188247,33.147865,0.15,85.19,0,8,-111,10,37.69746,33.14800758,130.1881074,88.335
82.5,130.188262,33.147846,0.15,85.19,0,8,-111,10,37.706718,33.14799563,130.188116,86.07
82.65,130.188262,33.147846,0.15,85.19,0,8,-111,10,37.7437595,33.14798368,130.1881246,77.01
82.8,130.188278,33.14783,0.15,85.07,0,9,-111,10,37.725239,33.14797187,130.1881332,77.01
82.95,130.188278,33.147815,0.15,85.07,0,8,-111,10,37.6696815,33.14796003,130.1881419,74.745
83.1,130.188293,33.1478,0.15,85.44,0,8,-111,10,37.5956,33.14794822,130.1881504,90.6
83.25,130.188293,33.1478,0.15,85.44,0,8,-110,10,37.503,33.14793626,130.188159,79.275
83.4,130.188308,33.147785,0.15,85.44,-1,9,-111,10,37.465961,33.14792435,130.1881677,108.72
83.55,130.188323,33.147766,0.15,85.19,-1,9,-111,10,37.827101,33.14791218,130.1881765,86.07
83.7,130.188339,33.14775,0.15,85.19,-1,9,-111,10,37.651161,33.14790012,130.1881853,67.95
83.85,130.188339,33.14775,0.15,85.19,0,10,-111,10,37.28076,33.14788805,130.1881941,81.54
84,130.188354,33.147735,0.15,85.69,-1,11,-111,10,37.299278,33.14787588,130.188203,86.07
84.15,130.188354,33.14772,0.15,85.69,-1,11,-111,10,37.049261,33.14786393,130.1882118,88.335
84.3,130.188369,33.147705,0.15,85.44,-1,11,-111,10,37.16964,33.14785173,130.1882206,95.13
84.45,130.188369,33.147705,0.15,85.44,-2,12,-112,10,37.2066805,33.14783956,130.1882292,90.6
84.6,130.188385,33.147689,0.15,85.44,-3,13,-113,10,37.20668,33.14782745,130.1882378,99.66
84.75,130.1884,33.147674,0.15,85.07,-3,12,-113,10,37.1603795,33.14781551,130.1882462,86.07
84.9,130.188415,33.147663,0.15,85.07,-3,12,-113,10,36.854801,33.14780358,130.1882546,86.07
85.05,130.188415,33.147663,0.15,85.07,-3,12,-114,10,37.141859,33.14779163,130.1882629,83.805
85.2,130.18843,33.147647,0.15,85.19,-3,10,-113,10,37.114079,33.14777962,130.1882713,77.01
85.35,130.18843,33.147632,0.15,85.19,-4,9,-112,10,37.19742,33.14776761,130.1882797,79.275
85.5,130.188446,33.147617,0.15,85.13,-4,9,-112,10,37.299278,33.14775558,130.1882882,90.6
85.65,130.188446,33.147617,0.15,85.13,-5,9,-112,10,37.336319,33.14774381,130.1882965,90.6
85.8,130.188461,33.147602,0.15,85.13,-5,9,-112,10,37.317799,33.1477323,130.1883047,63.42
85.95,130.188476,33.147586,0.15,85.13,-6,10,-112,10,36.98444,33.1477206,130.1883129,79.275
86.1,130.188491,33.147571,0.15,85.13,-6,10,-112,10,37.040001,33.14770892,130.1883211,77.01
86.25,130.188491,33.147571,0.15,85.13,-6,10,-112,10,36.9751795,33.14769736,130.1883293,83.805
86.4,130.188491,33.147556,0.15,85.19,-7,9,-111,10,37.00296,33.1476858,130.1883374,86.07
86.55,130.188507,33.147541,0.15,85.19,-7,11,-109,10,36.98444,33.14767433,130.1883455,83.805
86.7,130.188522,33.147529,0.15,84.94,-7,11,-109,10,36.928879,33.14766303,130.1883537,108.72
86.85,130.188522,33.147529,0.15,84.94,-7,11,-109,10,36.8733195,33.14765159,130.188362,95.13
87,130.188522,33.14751,0.15,84.94,-8,11,-110,10,36.447361,33.1476402,130.1883702,81.54
87.15,130.188537,33.147499,0.15,84.63,-8,11,-110,10,36.5492195,33.14762882,130.1883786,86.07
87.3,130.188552,33.147483,0.15,84.63,-8,11,-110,10,36.577,33.14761755,130.1883869,86.07
87.45,130.188552,33.147483,0.15,84.63,-8,11,-110,10,36.549219,33.14760623,130.1883951,79.275
87.6,130.188568,33.147468,0.15,84.94,-8,9,-109,10,36.521439,33.147595,130.1884034,99.66
87.75,130.188583,33.147453,0.15,84.94,-8,11,-110,10,36.4010605,33.14758386,130.1884113,101.925
87.9,130.188598,33.147441,0.15,84.32,-8,11,-110,10,36.280682,33.14757245,130.1884193,99.66
88.05,130.188598,33.147441,0.15,84.32,-8,10,-111,10,36.1788195,33.14756101,130.1884273,74.745
88.2,130.188598,33.147422,0.15,84.32,-8,10,-112,10,36.095482,33.14754965,130.188435,77.01
88.35,130.188598,33.147422,0.15,84.32,-9,12,-112,10,35.6324805,33.14753861,130.1884429,79.275
88.5,130.188598,33.147422,0.15,84.32,-9,12,-112,10,35.688042,33.1475276,130.1884508,86.07
88.65,130.188598,33.147422,0.15,84.32,-9,11,-113,10,35.6139605,33.14751647,130.1884588,86.07
88.8,130.188598,33.147422,0.15,84.32,-10,11,-112,10,35.521358,33.14750523,130.1884668,72.48
88.95,130.188598,33.147422,0.15,84.19,-11,12,-113,10,35.447281,33.14749397,130.1884748,88.335
89.1,130.188659,33.147354,0.15,83.63,-11,12,-113,10,35.41024,33.14748257,130.1884827,86.07
89.25,130.188659,33.147354,0.15,83.63,-11,12,-113,10,34.836121,33.14747121,130.1884907,67.95
89.4,130.188674,33.147342,0.15,83.63,-10,8,-113,10,34.262001,33.14746005,130.1884986,117.78
89.55,130.188674,33.147331,0.15,83.94,-9,10,-117,10,34.3175605,33.14744838,130.1885065,63.42
89.7,130.18869,33.147323,0.15,83.94,-9,10,-117,10,33.928638,33.14743652,130.1885143,104.19
89.85,130.18869,33.147323,0.15,83.94,-9,14,-120,10,33.974939,33.14742462,130.1885227,58.89
90,130.188705,33.147312,0.15,82.94,-12,18,-126,10,33.687881,33.14741347,130.1885309,117.78
90.15,130.188705,33.147312,0.15,82.94,-16,17,-127,10,33.3822995,33.14740283,130.188539,81.54
90.3,130.188705,33.147312,0.15,82.94,-18,17,-127,10,33.576759,33.14739207,130.1885466,58.89
90.45,130.188705,33.147312,0.15,82.94,-18,17,-126,10,32.7526185,33.1473817,130.1885541,81.54
90.6,130.188705,33.147312,0.15,82.19,-19,14,-125,10,32.558159,33.14737142,130.1885616,72.48
90.75,130.188766,33.14727,0.15,81.75,-22,17,-126,10,31.96552,33.14736176,130.1885686,115.515
90.9,130.188781,33.147258,0.15,81.75,-22,17,-126,10,31.53956,33.14735162,130.1885756,86.07
91.05,130.188781,33.147258,0.15,81.75,-24,19,-127,10,31.26176,33.14734166,130.1885823,95.13
91.2,130.188781,33.147251,0.15,80.32,-27,20,-128,10,30.872841,33.14733215,130.1885889,58.89
91.35,130.188796,33.147239,0.15,80.32,-33,19,-124,10,30.47466,33.14732285,130.1885954,67.95
91.5,130.188796,33.147239,0.15,80.32,-33,19,-124,10,30.13204,33.14731373,130.188602,77.01
91.65,130.188796,33.147239,0.15,79.5,-35,17,-119,10,29.7986805,33.14730475,130.1886084,74.745
91.8,130.188796,33.147239,0.15,79.5,-38,14,-112,10,29.5394,33.14729583,130.1886148,81.54
91.95,130.188796,33.147239,0.15,79.69,-40,13,-109,10,28.88194,33.14728703,130.188621,99.66
92.1,130.188796,33.147239,0.15,79.69,-40,13,-109,10,28.372641,33.14727818,130.1886271,99.66
92.25,130.188796,33.147239,0.15,79.69,-40,15,-109,10,28.20596,33.14726914,130.1886332,97.395
92.4,130.188858,33.147182,0.15,79.13,-39,17,-110,10,28.0578,33.14725982,130.1886393,95.13
92.55,130.188858,33.147174,0.15,79.13,-38,18,-112,10,27.8170405,33.14725017,130.1886454,104.19
92.7,130.188873,33.147167,0.15,78.94,-38,18,-112,10,27.53924,33.14724058,130.1886515,117.78
92.85,130.188873,33.147167,0.15,78.94,-38,18,-113,10,26.9651205,33.14723112,130.1886574,104.19
93,130.188873,33.147159,0.15,78.94,-37,22,-116,10,26.53916,33.14722198,130.1886635,117.78
93.15,130.188888,33.147151,0.15,78.19,-36,24,-119,10,26.4650805,33.14721284,130.1886696,104.19
93.3,130.188888,33.147144,0.15,78.19,-36,24,-119,10,26.391001,33.14720385,130.1886757,108.72
93.45,130.188888,33.147144,0.15,78.19,-36,25,-121,10,25.909479,33.14719532,130.1886817,97.395
93.6,130.188903,33.147136,0.15,77.32,-37,26,-123,10,25.77984,33.14718685,130.1886878,77.01
93.75,130.188919,33.147129,0.15,77.32,-40,25,-122,10,25.1779405,33.14717862,130.1886937,72.48
93.9,130.188919,33.147125,0.15,76.88,-40,25,-122,10,24.705681,33.14717048,130.1886997,72.48
94.05,130.188919,33.147125,0.15,76.88,-41,24,-120,10,24.2334205,33.14716264,130.1887056,65.685
94.2,130.188934,33.147117,0.15,76.88,-44,21,-115,10,23.65004,33.14715495,130.1887115,67.95
94.35,130.188934,33.147117,0.15,76.5,-46,18,-110,10,23.26112,33.14714747,130.1887172,49.83
94.5,130.188934,33.147102,0.15,76.5,-46,18,-110,10,22.8722,33.14713993,130.1887228,54.36
94.65,130.188934,33.147102,0.15,76.5,-46,16,-109,10,22.2054795,33.14713233,130.1887279,54.36
94.8,130.188949,33.147098,0.15,76.19,-47,13,-107,10,21.131321,33.14712515,130.188733,54.36
94.95,130.188949,33.147094,0.15,76.19,-46,13,-107,10,20.7701795,33.14711814,130.1887379,58.89
95.1,130.188949,33.147094,0.15,76.19,-46,13,-107,10,19.98308,33.14711137,130.1887428,58.89
95.25,130.188949,33.147094,0.15,75.82,-46,14,-107,10,19.5663805,33.14710485,130.1887473,54.36
95.4,130.188949,33.147094,0.15,75.82,-45,17,-111,10,18.983,33.14709843,130.1887518,54.36
95.55,130.188949,33.147094,0.15,75.82,-45,18,-113,10,18.307019,33.14709209,130.188756,45.3
95.7,130.188964,33.147079,0.15,75.13,-44,18,-113,10,17.760679,33.14708603,130.1887602,45.3
95.85,130.188964,33.147079,0.15,75.13,-44,23,-119,10,17.390281,33.14708023,130.1887643,38.505
96,130.188964,33.147079,0.15,75.13,-44,27,-125,10,16.50132,33.14707457,130.1887681,31.71
96.15,130.188964,33.147079,0.15,74.19,-44,30,-127,10,16.16796,33.14706908,130.1887719,29.445
96.3,130.18898,33.147068,0.15,73.19,-44,30,-127,10,15.59384,33.14706365,130.1887757,22.65
96.45,130.18898,33.147068,0.15,73.19,-43,34,-131,10,15.25122,33.14705854,130.1887795,24.915
96.6,130.18898,33.14706,0.15,73.19,-45,37,-131,10,14.40856,33.14705383,130.1887831,18.12
96.75,130.18898,33.147056,0.15,72.19,-48,38,-128,10,13.86222,33.14704955,130.188786,22.65
96.9,130.18898,33.147052,0.15,72.19,-48,38,-128,10,13.57516,33.14704542,130.188789,27.18
97.05,130.18898,33.147052,0.15,72.19,-50,37,-126,10,13.20476,33.14704131,130.1887918,22.65
97.2,130.188995,33.147048,0.15,71.32,-54,34,-121,10,12.57508,33.14703712,130.1887945,22.65
97.35,130.188995,33.147045,0.15,71.32,-57,30,-116,10,12.51026,33.14703302,130.1887972,27.18
97.5,130.188995,33.147041,0.15,70.44,-57,30,-116,10,11.74168,33.1470291,130.1888,27.18
97.65,130.188995,33.147041,0.15,70.44,-59,28,-114,10,11.63982,33.14702527,130.1888028,22.65
97.8,130.188995,33.147037,0.15,70.44,-61,23,-111,10,11.05644,33.14702167,130.1888053,27.18
97.95,130.188995,33.147033,0.15,70.07,-61,22,-110,10,10.95458,33.14701843,130.1888081,27.18
98.1,130.188995,33.147033,0.15,70.07,-61,22,-110,10,10.53788,33.14701512,130.1888107,27.18
98.25,130.188995,33.147033,0.15,70.07,-61,36,-114,10,10.43602,33.14701194,130.1888131,22.65
98.4,130.18901,33.147029,0.15,69.94,-54,56,-125,10,10.05636,33.14700887,130.1888155,22.65
98.55,130.18901,33.147022,0.15,69.94,-41,63,-140,10,9.9545,33.14700595,130.1888177,24.915
98.7,130.18901,33.147022,0.15,69.94,-41,63,-140,10,9.76004,33.14700315,130.1888198,22.65
98.85,130.18901,33.147022,0.15,69,-25,70,-158,10,9.4915,33.14700038,130.188822,22.65
99,130.18901,33.147022,0.15,69,-15,74,-169,10,9.0748,33.14699763,130.1888242,18.12
99.15,130.18901,33.147022,0.15,68.38,3,71,167,10,8.99146,33.14699495,130.1888263,15.855
99.3,130.18901,33.147022,0.15,68.38,3,71,167,10,8.55624,33.14699243,130.1888281,13.59
99.45,130.18901,33.147022,0.15,68.38,6,66,162,10,8.50994,33.14699008,130.1888298,11.325
99.6,130.18901,33.147022,0.15,68.63,2,59,162,10,8.31548,33.14698778,130.1888315,18.12
99.75,130.18901,33.147018,0.15,68.63,1,52,159,10,7.86174,33.14698565,130.1888332,15.855
99.9,130.18901,33.147018,0.15,68.63,1,52,159,10,7.70432,33.14698352,130.1888348,13.59
100.05,130.18901,33.147018,0.15,68.57,0,52,160,10,7.30614,33.14698137,130.1888364,11.325
100.2,130.18901,33.147018,0.15,68.57,0,52,160,10,7.18576,33.1469793,130.1888378,9.06
