time,long,lat,dt,H,Roll,pitch,yaw,S,truckSpeed,truck_Lat,truck_long,Tension
0,130.188949,33.146835,0.15,67.07,2,-58,51,11,0,33.146982,130.188833,0
0.15,130.188949,33.146835,0.15,66.75,2,-58,51,11,1.54642,33.14698247,130.1888329,2.265
0.3,130.188949,33.146835,0.15,66.75,2,-59,51,11,1.2964,33.14698322,130.1888326,9.06
0.45,130.188949,33.146835,0.15,66.75,2,-59,51,11,3.36138,33.14698431,130.1888319,6.795
0.6,130.188949,33.146835,0.15,66.44,1,-64,46,11,3.8892,33.14698553,130.1888311,9.06
0.75,130.188949,33.146835,0.15,66.44,1,-63,48,11,5.2319,33.14698723,130.1888301,15.855
0.9,130.188949,33.146835,0.15,67.25,3,-48,48,11,6.1116,33.14698925,130.1888289,18.12
1.05,130.188949,33.146835,0.15,67.25,3,-48,60,11,7.0839,33.14699167,130.1888275,20.385
1.2,130.188949,33.146835,0.15,67.25,4,-40,64,11,7.70432,33.1469943,130.188826,27.18
1.35,130.188949,33.146839,0.15,67.44,4,-42,63,11,8.334,33.14699712,130.1888243,33.975
1.5,130.188934,33.146842,0.15,67.44,3,-46,61,11,9.01924,33.14700023,130.1888226,36.24
1.65,130.188934,33.146846,0.15,67.44,3,-46,61,11,9.78782,33.14700352,130.1888208,36.24
1.8,130.188934,33.146846,0.15,67.44,4,-46,61,11,10.33416,33.1470071,130.1888188,40.77
1.95,130.188934,33.14685,0.15,67.44,4,-46,61,11,11.44536,33.14701103,130.1888165,38.505
2.1,130.188934,33.146858,0.15,67.94,5,-45,62,11,12.46396,33.14701533,130.1888142,40.77
2.25,130.188934,33.146858,0.15,67.94,5,-45,62,11,13.5196,33.1470201,130.1888116,43.035
2.4,130.188934,33.146858,0.15,67.94,5,-43,63,11,14.59376,33.1470251,130.1888088,40.77
2.55,130.188919,33.146877,0.15,68.63,5,-44,63,11,15.10306,33.14703032,130.1888059,38.505
2.7,130.188919,33.146877,0.15,68.63,6,-44,63,11,15.51976,33.14703562,130.1888028,45.3
2.85,130.188919,33.146877,0.15,68.63,6,-44,63,11,16.1124,33.1470411,130.1887995,40.77
3,130.188919,33.146896,0.15,71.94,8,-40,65,11,16.59392,33.14704677,130.1887959,36.24
3.15,130.188919,33.146907,0.15,71.94,8,-39,65,11,17.28842,33.14705267,130.1887923,77.01
3.3,130.188919,33.146907,0.15,71.94,10,-33,68,11,18.557039,33.14705888,130.1887885,122.31
3.45,130.188919,33.146907,0.15,71.94,10,-33,68,11,18.7052,33.1470653,130.1887846,149.49
3.6,130.188903,33.146942,0.15,75.07,10,-40,67,11,19.520081,33.1470719,130.1887806,181.2
3.75,130.188888,33.146957,0.15,78.32,11,-41,66,11,19.89974,33.14707861,130.1887765,237.825
3.9,130.188888,33.146976,0.15,78.32,12,-36,68,11,20.242359,33.14708542,130.1887722,258.21
4.05,130.188888,33.146976,0.15,78.32,12,-36,68,11,20.6220195,33.14709234,130.1887679,199.32
4.2,130.188873,33.146999,0.15,80.82,14,-37,66,11,21.59432,33.14709945,130.1887634,122.31
4.35,130.188858,33.147022,0.15,80.82,14,-31,66,11,21.4554205,33.14710658,130.1887585,156.285
4.5,130.188842,33.147048,0.15,83.13,13,-15,68,11,22.76108,33.14711407,130.1887536,172.14
4.65,130.188842,33.147068,0.15,83.13,13,-15,68,11,22.9370205,33.14712176,130.1887486,115.515
4.8,130.188827,33.147068,0.15,83.13,9,-8,71,11,23.298161,33.14712958,130.1887435,99.66
4.95,130.188812,33.14709,0.15,83.94,9,-4,74,11,23.7981995,33.14713757,130.1887384,101.925
5.1,130.188812,33.14709,0.15,83.94,7,8,80,11,24.55752,33.1471457,130.1887329,113.25
5.25,130.188812,33.14709,0.15,83.94,7,8,80,11,24.4834405,33.14715383,130.1887275,81.54
5.4,130.188781,33.147129,0.15,83.25,7,10,82,11,24.94644,33.147162,130.1887219,67.95
5.55,130.188781,33.147144,0.15,83.25,6,12,83,11,25.0019995,33.14717033,130.1887163,52.095
5.7,130.188766,33.147159,0.15,84,3,17,86,11,25.2798,33.14717863,130.1887105,36.24
5.85,130.188766,33.147171,0.15,84,3,17,86,11,25.224239,33.14718698,130.1887045,22.65
6,130.188766,33.147171,0.15,84,0,20,95,11,25.483521,33.1471954,130.1886985,18.12
6.15,130.188766,33.147182,0.15,84.25,0,21,101,11,25.918739,33.14720394,130.1886925,11.325
6.3,130.188766,33.147197,0.15,84.25,1,23,112,11,26.24284,33.14721263,130.1886864,9.06
6.45,130.188766,33.147209,0.15,84.25,1,23,112,11,26.0854195,33.14722128,130.1886804,6.795
6.6,130.188766,33.147209,0.15,84,4,27,122,11,26.03912,33.14722985,130.1886743,9.06
6.75,130.188766,33.147216,0.15,84,6,28,125,11,26.54842,33.14723849,130.188668,18.12
6.9,130.188766,33.147228,0.15,82.75,11,28,129,11,26.7614,33.14724723,130.1886617,31.71
7.05,130.188766,33.147235,0.15,82.75,11,28,129,11,27.09476,33.1472561,130.1886554,61.155
7.2,130.188766,33.147235,0.15,82.75,18,25,129,11,27.316999,33.14726498,130.188649,81.54
7.35,130.188766,33.147247,0.15,80.5,22,22,127,11,27.4281205,33.14727391,130.1886425,92.865
7.5,130.188766,33.147258,0.15,80.5,34,17,115,11,27.872601,33.14728292,130.1886359,90.6
7.65,130.188766,33.147266,0.15,80.5,34,17,115,11,28.0115,33.14729207,130.1886292,95.13
7.8,130.188766,33.147266,0.15,79.69,42,0,93,11,28.22448,33.14730125,130.1886225,90.6
7.95,130.188766,33.147281,0.15,79.69,43,-5,82,11,28.5300595,33.14731053,130.1886156,104.19
8.1,130.188751,33.147293,0.15,80.07,40,-16,64,11,28.891199,33.14731998,130.1886087,95.13
8.25,130.188751,33.147304,0.15,80.07,40,-16,64,11,29.23382,33.1473295,130.1886018,115.515
8.4,130.188751,33.147304,0.15,80.07,33,-21,49,11,29.372721,33.14733915,130.1885949,135.9
8.55,130.18872,33.147308,0.15,80.94,28,-21,42,11,29.5486605,33.14734875,130.1885879,156.285
8.7,130.188705,33.147312,0.15,80.94,18,-19,32,11,29.8172,33.1473584,130.1885809,199.32
8.85,130.188705,33.147312,0.15,80.94,18,-19,32,11,30.0672195,33.14736823,130.1885738,185.73
9,130.188674,33.147312,0.15,82.69,6,-15,27,11,30.35428,33.14737815,130.1885667,167.61
9.15,130.188644,33.147315,0.15,82.69,0,-16,29,11,30.66912,33.14738816,130.1885597,151.755
9.3,130.188629,33.147327,0.15,85,-7,-11,46,11,30.13204,33.14739812,130.1885527,122.31
9.45,130.188629,33.147342,0.15,85,-7,-11,46,11,30.696899,33.14740798,130.1885456,120.045
9.6,130.188598,33.147342,0.15,85,-12,-4,61,11,30.298719,33.14741792,130.1885386,95.13
9.75,130.188583,33.147357,0.15,85.5,-13,-2,65,11,29.632,33.14742765,130.1885316,54.36
9.9,130.188568,33.147377,0.15,85.5,-12,1,73,11,31.13212,33.1474375,130.1885247,81.54
10.05,130.188568,33.147392,0.15,85.5,-12,1,73,11,29.5857,33.14744738,130.1885176,38.505
10.2,130.188552,33.147392,0.15,84.94,-8,8,75,11,30.261681,33.1474572,130.1885108,36.24
10.35,130.188537,33.147411,0.15,84.94,-8,10,76,11,30.31724,33.14746727,130.1885041,36.24
10.5,130.188537,33.147422,0.15,84.94,-4,13,74,11,29.761641,33.14747718,130.1884974,54.36
10.65,130.188537,33.147438,0.15,84.94,-4,13,74,11,31.22472,33.1474873,130.1884906,31.71
10.8,130.188522,33.147438,0.15,84.94,-1,15,74,11,31.33584,33.14749757,130.1884837,40.77
10.95,130.188522,33.147453,0.15,84.44,0,14,74,11,31.9747795,33.14750787,130.1884769,61.155
11.1,130.188507,33.147464,0.15,84.44,0,14,75,11,32.854481,33.14751862,130.1884699,77.01
11.25,130.188507,33.147476,0.15,84.44,0,14,75,11,32.79892,33.1475295,130.188463,67.95
11.4,130.188507,33.147476,0.15,84.13,1,11,75,11,33.81752,33.14754058,130.188456,90.6
11.55,130.188491,33.147491,0.15,84.13,2,9,75,11,33.8730795,33.14755173,130.1884489,58.89
11.7,130.188491,33.147506,0.15,84.19,5,7,75,11,34.42868,33.14756302,130.1884418,86.07
11.85,130.188491,33.147525,0.15,84.19,5,7,75,11,34.79908,33.1475745,130.1884345,86.07
12,130.188476,33.147525,0.15,84.19,6,6,76,11,35.039841,33.14758602,130.188427,99.66
12.15,130.188476,33.147525,0.15,84.19,6,4,75,11,35.58618,33.14759778,130.1884193,86.07
12.3,130.188476,33.147525,0.15,83.88,8,1,75,11,35.81768,33.14760962,130.1884114,72.48
12.45,130.188476,33.147571,0.15,83.88,8,1,75,11,36.354759,33.14762154,130.1884034,79.275
12.6,130.188461,33.147571,0.15,84.57,9,3,75,11,36.41032,33.14763355,130.1883954,72.48
12.75,130.188461,33.147571,0.15,84.57,9,4,75,11,36.7066405,33.14764563,130.1883873,86.07
12.9,130.188461,33.147571,0.15,84.44,9,5,73,11,37.225201,33.14765772,130.188379,86.07
13.05,130.188461,33.147624,0.15,84.44,9,5,73,11,37.3826195,33.14766983,130.1883708,70.215
13.2,130.18843,33.147624,0.15,84.44,10,6,73,11,38.095638,33.1476821,130.1883624,77.01
13.35,130.188415,33.147644,0.15,84.63,9,6,73,11,38.225281,33.14769455,130.1883538,65.685
13.5,130.1884,33.147663,0.15,84.63,10,8,73,11,38.76236,33.14770708,130.1883451,72.48
13.65,130.1884,33.147678,0.15,84.63,10,8,73,11,38.7716195,33.14771962,130.1883363,72.48
13.8,130.188385,33.147678,0.15,84.25,10,7,73,11,38.743839,33.14773213,130.1883276,72.48
13.95,130.188369,33.147697,0.15,84.25,9,8,73,11,39.3920405,33.14774485,130.1883187,88.335
14.1,130.188354,33.147716,0.15,84.44,10,8,72,11,39.78096,33.14775778,130.1883098,99.66
14.25,130.188354,33.147731,0.15,84.44,10,8,72,11,40.142099,33.14777091,130.1883008,90.6
14.4,130.188354,33.147731,0.15,84.44,9,6,72,11,40.429161,33.1477841,130.1882918,99.66
14.55,130.188339,33.14775,0.15,84.19,9,5,72,11,40.734739,33.14779748,130.1882827,97.395
14.7,130.188323,33.147766,0.15,84.19,9,5,72,11,40.725479,33.14781088,130.1882736,86.07
14.85,130.188323,33.147789,0.15,84.19,9,5,72,11,41.114401,33.14782431,130.1882645,99.66
15,130.188323,33.147789,0.15,84.75,8,4,72,11,41.3922,33.1478379,130.1882552,99.66
15.15,130.188323,33.147789,0.15,84.75,9,5,72,11,41.512581,33.14785157,130.1882458,104.19
15.3,130.188323,33.147789,0.15,84.57,9,4,72,11,41.669998,33.1478653,130.1882363,108.72
15.45,130.188323,33.147842,0.15,84.57,9,4,72,11,41.7903805,33.14787901,130.1882268,106.455
15.6,130.188278,33.147842,0.15,84.57,9,5,72,11,41.855202,33.14789265,130.1882174,113.25
15.75,130.188262,33.147861,0.15,84.82,9,6,72,11,41.8737205,33.14790631,130.1882079,104.19
15.9,130.188262,33.14788,0.15,84.82,10,5,72,11,42.244122,33.14792007,130.1881985,99.66
16.05,130.188262,33.147899,0.15,84.82,10,5,72,11,42.0867005,33.14793376,130.188189,95.13
16.2,130.188232,33.147899,0.15,84.88,9,6,71,11,42.37376,33.14794753,130.1881795,104.19
16.35,130.188217,33.147918,0.15,84.88,9,7,71,11,42.3459795,33.14796139,130.1881701,83.805
16.5,130.188217,33.147937,0.15,85.07,9,8,71,11,42.707119,33.14797527,130.1881606,99.66
16.65,130.188217,33.147956,0.15,85.07,9,8,71,11,42.697859,33.1479892,130.188151,95.13
16.8,130.188201,33.147956,0.15,85.07,8,10,72,11,43.003441,33.14800322,130.1881414,108.72
16.95,130.188186,33.147975,0.15,85.13,8,9,72,11,43.197899,33.14801729,130.1881319,106.455
17.1,130.188186,33.147975,0.15,85.13,8,9,72,11,43.281239,33.1480314,130.1881224,104.19
17.25,130.188186,33.148017,0.15,85.13,8,9,72,11,43.8923985,33.14804565,130.1881127,108.72
17.4,130.188156,33.148017,0.15,84.57,8,7,72,11,43.92944,33.14805995,130.188103,122.31
17.55,130.188156,33.148033,0.15,84.57,9,7,72,11,44.105381,33.14807442,130.1880933,113.25
17.7,130.18814,33.148052,0.15,84.82,9,6,72,11,44.7258,33.14808903,130.1880835,113.25
17.85,130.18814,33.148071,0.15,84.82,9,6,72,11,44.698019,33.14810369,130.1880736,110.985
18,130.188125,33.148071,0.15,84.82,9,7,72,11,45.17028,33.1481185,130.1880636,126.84
18.15,130.18811,33.14809,0.15,84.57,9,7,72,11,45.25362,33.14813342,130.1880536,129.105
18.3,130.188095,33.148113,0.15,84.57,10,6,72,11,45.33696,33.14814827,130.1880436,122.31
18.45,130.188095,33.148132,0.15,84.57,10,6,72,11,45.837,33.14816321,130.1880334,122.31
18.6,130.188095,33.148132,0.15,84.88,10,6,72,11,46.022202,33.1481782,130.1880233,131.37
18.75,130.188064,33.148151,0.15,84.88,10,7,72,11,46.096279,33.14819327,130.188013,138.165
18.9,130.188049,33.14817,0.15,84.82,11,6,71,11,46.244438,33.14820837,130.1880026,131.37
19.05,130.188049,33.148197,0.15,84.82,11,6,71,11,46.66114,33.14822359,130.1879921,129.105
19.2,130.188034,33.148197,0.15,84.82,11,5,71,11,46.837078,33.14823903,130.1879817,126.84
19.35,130.188034,33.148216,0.15,85.19,11,6,71,11,47.1334,33.14825449,130.1879711,124.575
19.5,130.188018,33.148235,0.15,85.19,11,6,71,11,47.3186,33.14826998,130.1879606,140.43
19.65,130.188018,33.148254,0.15,85.19,11,6,71,11,47.4574985,33.14828554,130.18795,133.635
19.8,130.188003,33.148254,0.15,85.07,11,8,71,11,47.596401,33.14830105,130.1879393,122.31
19.95,130.187988,33.148277,0.15,85.07,11,7,71,11,48.2631205,33.1483167,130.1879286,131.37
20.1,130.187973,33.148296,0.15,85.13,12,8,70,11,48.226082,33.1483324,130.1879179,140.43
20.25,130.187973,33.148319,0.15,85.13,12,8,70,11,48.476099,33.14834812,130.187907,124.575
20.4,130.187957,33.148319,0.15,85.13,11,8,70,11,48.72612,33.14836385,130.1878959,131.37
20.55,130.187942,33.148338,0.15,85.19,10,7,70,11,48.73538,33.14837973,130.1878849,131.37
20.7,130.187942,33.148338,0.15,85.19,10,7,71,11,48.818722,33.14839558,130.1878738,131.37
20.85,130.187942,33.148338,0.15,85.19,10,7,71,11,49.0502185,33.14841143,130.1878627,142.695
21,130.187942,33.148338,0.15,85.19,10,8,71,11,49.263199,33.14842743,130.1878515,144.96
21.15,130.187942,33.148338,0.15,85.07,10,8,71,11,49.3465405,33.14844337,130.1878402,144.96
21.3,130.187881,33.148429,0.15,84.82,10,8,71,11,49.7262,33.14845932,130.1878289,149.49
21.45,130.187881,33.148448,0.15,84.82,10,8,71,11,49.5595205,33.14847528,130.1878177,163.08
21.6,130.187866,33.148448,0.15,84.82,11,6,71,11,49.578041,33.14849125,130.1878065,154.02
21.75,130.18785,33.148471,0.15,85.07,11,5,70,11,49.568781,33.14850728,130.1877953,149.49
21.9,130.187835,33.14849,0.15,85.07,12,6,70,11,49.466919,33.14852323,130.1877843,135.9
22.05,130.187835,33.148517,0.15,85.07,12,6,70,11,49.661381,33.14853927,130.1877731,156.285
22.2,130.18782,33.148517,0.15,85.19,10,7,70,11,49.818802,33.1485554,130.1877619,149.49
22.35,130.187805,33.148536,0.15,85.19,11,7,69,11,49.8465785,33.14857149,130.1877507,129.105
22.5,130.187789,33.148559,0.15,85.57,10,9,69,11,49.855839,33.14858762,130.1877395,99.66
22.65,130.187789,33.148578,0.15,85.57,10,9,69,11,49.82806,33.14860381,130.1877285,117.78
22.8,130.187774,33.148578,0.15,85.57,10,11,70,11,49.837318,33.14862007,130.1877174,113.25
22.95,130.187759,33.148601,0.15,85.44,9,12,71,11,49.8373205,33.14863628,130.1877062,124.575
23.1,130.187728,33.14862,0.15,85.44,9,14,71,11,49.9114,33.14865253,130.187695,135.9
23.25,130.187728,33.148643,0.15,85.44,9,14,71,11,49.559521,33.14866875,130.1876838,122.31
23.4,130.187713,33.148643,0.15,84.94,9,11,71,11,49.466919,33.14868487,130.1876727,135.9
23.55,130.187698,33.148662,0.15,84.94,9,11,71,11,49.1983795,33.14870096,130.1876616,135.9
23.7,130.187698,33.148685,0.15,85.07,9,9,72,11,49.040958,33.148717,130.1876505,140.43
23.85,130.187698,33.148704,0.15,85.07,9,9,72,11,49.02244,33.14873309,130.1876395,142.695
24,130.187683,33.148704,0.15,85.07,9,8,72,11,48.633518,33.14874913,130.1876285,126.84
24.15,130.187667,33.148727,0.15,84.94,9,7,72,11,48.7539005,33.14876513,130.1876175,126.84
24.3,130.187652,33.14875,0.15,84.94,10,8,72,11,48.7076,33.14878108,130.1876066,122.31
24.45,130.187652,33.148773,0.15,84.94,10,8,72,11,48.652039,33.14879696,130.1875958,122.31
24.6,130.187637,33.148773,0.15,85,10,8,72,11,48.281639,33.14881278,130.1875849,117.78
24.75,130.187622,33.148792,0.15,85,10,9,72,11,48.31868,33.1488285,130.1875742,133.635
24.9,130.187606,33.148811,0.15,85.07,10,10,72,11,48.355721,33.14884425,130.1875633,117.78
25.05,130.187606,33.148834,0.15,85.07,10,10,72,11,48.3001595,33.1488599,130.1875523,126.84
25.2,130.187591,33.148834,0.15,85.07,11,10,71,11,48.31868,33.14887563,130.1875413,131.37
25.35,130.187576,33.148857,0.15,84.94,10,10,72,11,48.2446005,33.14889132,130.1875303,144.96
25.5,130.187576,33.148857,0.15,84.94,11,9,72,11,48.226082,33.1489069,130.1875193,144.96
25.65,130.187576,33.148857,0.15,84.94,11,9,72,11,48.1427405,33.14892244,130.1875083,133.635
25.8,130.187576,33.148857,0.15,84.94,11,8,71,11,48.096439,33.14893787,130.1874973,144.96
25.95,130.18753,33.148918,0.15,84.94,11,7,71,11,48.0038415,33.14895323,130.1874863,142.695
26.1,130.187515,33.148941,0.15,84.94,12,6,71,11,48.059399,33.14896863,130.1874752,131.37
26.25,130.187515,33.148941,0.15,84.94,12,6,71,11,48.087179,33.1489841,130.1874641,108.72
26.4,130.187515,33.148941,0.15,84.94,12,6,71,11,48.152,33.14899955,130.1874531,135.9
26.55,130.187484,33.148983,0.15,85.5,11,9,69,11,47.994579,33.14901502,130.187442,117.78
26.7,130.187469,33.149005,0.15,85.5,11,12,70,11,48.11496,33.14903042,130.1874308,104.19
26.85,130.187469,33.149028,0.15,85.5,11,12,70,11,48.059399,33.14904588,130.1874196,110.985
27,130.187454,33.149028,0.15,85.25,12,12,70,11,47.94828,33.14906132,130.1874085,108.72
27.15,130.187438,33.149044,0.15,85.25,11,12,71,11,48.0408805,33.1490767,130.1873973,115.515
27.3,130.187423,33.149063,0.15,85,11,13,71,11,47.966801,33.14909215,130.1873862,108.72
27.45,130.187423,33.149082,0.15,85,11,13,71,11,47.9019795,33.1491076,130.1873753,113.25
27.6,130.187408,33.149082,0.15,85,11,12,71,11,47.800121,33.14912302,130.1873643,131.37
27.75,130.187393,33.149105,0.15,85,11,11,71,11,47.7075195,33.14913827,130.1873535,129.105
27.9,130.187377,33.149124,0.15,85,10,9,70,11,47.577881,33.1491535,130.1873426,131.37
28.05,130.187377,33.149124,0.15,85,10,9,70,11,47.6056615,33.14916886,130.1873319,138.165
28.2,130.187377,33.149124,0.15,84.94,10,8,70,11,47.614922,33.1491842,130.1873211,122.31
28.35,130.187347,33.149162,0.15,84.94,10,7,70,11,47.5871415,33.1491995,130.1873104,113.25
28.5,130.187332,33.149185,0.15,85.38,10,7,70,11,47.503799,33.14921472,130.1872996,122.31
28.65,130.187316,33.149204,0.15,85.38,10,7,70,11,47.43898,33.14922994,130.1872889,115.515
28.8,130.187316,33.149204,0.15,85.38,9,8,70,11,47.3186,33.14924508,130.1872781,126.84
28.95,130.187301,33.149227,0.15,84.94,9,8,69,11,47.226,33.14926029,130.1872673,115.515
29.1,130.187286,33.149246,0.15,84.94,9,8,70,11,47.170441,33.14927557,130.1872564,117.78
29.25,130.187271,33.149269,0.15,84.94,9,8,70,11,47.4574985,33.14929091,130.1872457,120.045
29.4,130.187271,33.149269,0.15,85.44,9,9,70,11,46.818562,33.14930612,130.187235,113.25
29.55,130.187271,33.149288,0.15,85.44,9,8,70,11,47.188961,33.14932134,130.1872243,117.78
29.7,130.18724,33.149307,0.15,85.13,8,9,70,11,47.040798,33.1493366,130.1872136,117.78
29.85,130.18724,33.149326,0.15,85.13,8,9,70,11,47.3649005,33.14935195,130.187203,120.045
30,130.187225,33.149326,0.15,85.13,8,10,70,11,47.226002,33.14936723,130.1871924,117.78
30.15,130.18721,33.149349,0.15,85.07,8,9,69,11,47.2445205,33.14938251,130.1871818,129.105
30.3,130.187194,33.149368,0.15,85.07,7,9,69,11,47.244518,33.14939773,130.1871713,126.84
30.45,130.187194,33.149387,0.15,85.07,7,9,69,11,47.198221,33.14941298,130.1871608,126.84
30.6,130.187179,33.149387,0.15,85.13,7,7,69,11,47.244518,33.14942833,130.1871504,131.37
30.75,130.187164,33.149406,0.15,85.13,7,8,69,11,47.244518,33.14944374,130.1871398,113.25
30.9,130.187149,33.149429,0.15,85.25,7,8,69,11,47.596401,33.14945915,130.1871292,122.31
31.05,130.187149,33.149448,0.15,85.25,7,8,69,11,47.5964015,33.14947464,130.1871185,124.575
31.2,130.187133,33.149448,0.15,85.25,7,10,69,11,47.503799,33.14949005,130.1871078,104.19
31.35,130.187118,33.149471,0.15,85.38,6,9,70,11,47.6704785,33.14950553,130.187097,122.31
31.5,130.187103,33.14949,0.15,85.38,6,10,70,11,47.633438,33.1495209,130.1870862,131.37
31.65,130.187103,33.149509,0.15,85.38,6,10,70,11,47.62418,33.1495362,130.1870754,124.575
31.8,130.187103,33.149509,0.15,85.19,5,9,70,11,47.54084,33.1495515,130.1870644,113.25
31.95,130.187072,33.149528,0.15,85.19,5,10,70,11,47.503799,33.14956678,130.1870534,117.78
32.1,130.187057,33.149551,0.15,84.94,5,10,70,11,47.577881,33.14958203,130.1870425,113.25
32.25,130.187057,33.149551,0.15,84.94,5,10,70,11,47.5964015,33.14959739,130.1870315,120.045
32.4,130.187057,33.149551,0.15,84.94,5,9,71,11,47.596401,33.14961277,130.1870206,126.84
32.55,130.187026,33.149589,0.15,85,6,9,71,11,47.4019395,33.14962803,130.1870096,115.515
32.7,130.187026,33.149589,0.15,85,5,9,71,11,47.33712,33.14964325,130.1869987,117.78
32.85,130.187026,33.149631,0.15,85,5,9,71,11,47.272299,33.14965852,130.1869877,117.78
33,130.187011,33.149631,0.15,85.07,6,9,71,11,47.244518,33.14967378,130.1869768,108.72
33.15,130.186996,33.14965,0.15,85.07,6,8,71,11,47.15192,33.14968903,130.1869658,117.78
33.3,130.186981,33.149669,0.15,85.19,6,8,71,11,46.633362,33.14970427,130.186955,117.78
33.45,130.186981,33.149692,0.15,85.19,6,8,71,11,46.392601,33.14971937,130.1869443,110.985
33.6,130.186965,33.149692,0.15,85.19,6,9,71,11,46.13332,33.1497343,130.1869337,113.25
33.75,130.18695,33.149711,0.15,85.13,6,9,70,11,45.7166195,33.14974923,130.1869234,104.19
33.9,130.186935,33.14973,0.15,85.13,6,10,70,11,45.448078,33.14976413,130.1869131,99.66
34.05,130.186935,33.149753,0.15,85.13,6,10,70,11,45.1702805,33.14977897,130.1869032,92.865
34.2,130.18692,33.149753,0.15,85.13,5,11,70,11,44.855438,33.14979373,130.1868936,86.07
34.35,130.186904,33.149772,0.15,85.13,5,13,69,11,44.3461395,33.1498084,130.1868843,88.335
34.5,130.186889,33.149791,0.15,84.82,5,13,70,11,44.114639,33.14982302,130.1868752,108.72
34.65,130.186889,33.149806,0.15,84.82,5,13,70,11,43.503481,33.14983763,130.1868665,138.165
34.8,130.186874,33.149806,0.15,84.82,3,13,70,11,43.262718,33.14985218,130.186858,140.43
34.95,130.186859,33.149829,0.15,84.57,0,10,70,11,42.84602,33.14986678,130.1868499,120.045
35.1,130.186859,33.149829,0.15,84.57,0,8,71,11,42.447842,33.14988135,130.1868419,113.25
35.25,130.186859,33.149829,0.15,84.57,0,8,71,11,42.114481,33.14989586,130.1868343,115.515
35.4,130.186859,33.149829,0.15,85.5,-2,9,75,11,41.540359,33.14991025,130.1868269,90.6
35.55,130.186828,33.149887,0.15,85.5,-2,9,79,11,41.0681,33.14992438,130.18682,81.54
35.7,130.186813,33.149906,0.15,85.5,-2,11,80,11,40.799561,33.14993832,130.1868134,86.07
35.85,130.186813,33.149929,0.15,85.5,-2,11,80,11,40.0402415,33.14995204,130.1868071,99.66
36,130.186813,33.149929,0.15,85.5,-1,14,82,11,39.206841,33.14996572,130.1868009,86.07
36.15,130.186798,33.149948,0.15,84.94,-3,11,83,11,38.97534,33.1499792,130.186795,106.455
36.3,130.186798,33.149963,0.15,84.94,-3,11,85,11,38.18824,33.14999247,130.186789,86.07
36.45,130.186798,33.149963,0.15,84.94,-3,11,85,11,37.79006,33.15000555,130.1867832,90.6
36.6,130.186798,33.149963,0.15,85,-3,11,92,11,37.151119,33.15001845,130.1867776,77.01
36.75,130.186798,33.150001,0.15,85,1,12,99,11,36.49366,33.15003111,130.1867722,83.805
36.9,130.186782,33.15002,0.15,84.82,4,13,100,11,36.151039,33.15004365,130.1867668,72.48
37.05,130.186782,33.150035,0.15,84.82,4,13,100,11,35.725079,33.15005606,130.1867616,101.925
37.2,130.186782,33.150035,0.15,84.82,8,12,99,11,35.706558,33.15006837,130.1867565,135.9
37.35,130.186782,33.150054,0.15,83.94,12,10,95,11,34.8453785,33.15008055,130.1867513,131.37
37.5,130.186782,33.15007,0.15,83.94,12,8,93,11,34.169399,33.15009258,130.1867462,144.96
37.65,130.186782,33.150089,0.15,83.94,12,8,93,11,33.660101,33.15010438,130.1867411,99.66
37.8,130.186782,33.150089,0.15,83.82,14,6,93,11,33.41008,33.15011618,130.186736,95.13
37.95,130.186782,33.150108,0.15,83.82,15,9,96,11,32.854481,33.15012771,130.186731,97.395
38.1,130.186782,33.150123,0.15,83.94,16,9,98,11,32.280361,33.15013905,130.186726,90.6
38.25,130.186782,33.150142,0.15,83.94,16,9,98,11,31.8821805,33.15015017,130.1867209,115.515
38.4,130.186782,33.150142,0.15,83.94,19,10,97,11,31.15064,33.15016117,130.1867155,81.54
38.55,130.186767,33.150161,0.15,83.25,23,10,93,11,30.5765195,33.15017169,130.18671,106.455
38.7,130.186767,33.150177,0.15,83.25,26,11,91,11,29.83572,33.15018198,130.1867041,67.95
38.85,130.186767,33.150192,0.15,83.25,26,11,91,11,29.9005405,33.15019213,130.1866983,72.48
39,130.186767,33.150192,0.15,84.07,30,10,85,11,29.22456,33.15020193,130.1866922,36.24
39.15,130.186752,33.150207,0.15,84.07,29,10,79,11,28.5207995,33.15021125,130.1866857,52.095
39.3,130.186737,33.150218,0.15,84.13,28,14,77,11,27.909639,33.15022033,130.1866791,31.71
39.45,130.186737,33.15023,0.15,84.13,28,14,77,11,27.6596205,33.15022885,130.1866722,72.48
39.6,130.186737,33.15023,0.15,84.13,25,13,76,11,26.37248,33.15023742,130.1866652,31.71
39.75,130.186737,33.150245,0.15,83.63,25,12,80,11,25.594641,33.15024525,130.1866584,29.445
39.9,130.186737,33.150245,0.15,83.63,24,16,80,11,24.427879,33.15025253,130.1866514,67.95
40.05,130.186737,33.150245,0.15,83.63,24,16,84,11,23.6500395,33.15025958,130.1866444,49.83
40.2,130.186737,33.150245,0.15,83.69,23,20,91,11,23.020361,33.15026612,130.1866374,99.66
40.35,130.186721,33.150276,0.15,83.69,26,22,96,11,22.52958,33.15027223,130.1866301,88.335
40.5,130.186721,33.150276,0.15,82.07,28,18,97,11,21.446159,33.15027798,130.1866229,90.6
40.65,130.186721,33.150276,0.15,82.07,28,18,97,11,20.6868405,33.1502835,130.1866157,86.07
40.8,130.186706,33.150302,0.15,82.07,33,17,93,11,19.70528,33.1502887,130.1866086,81.54
40.95,130.186706,33.150302,0.15,82.07,38,17,90,11,18.9274395,33.15029328,130.1866016,88.335
41.1,130.186706,33.150302,0.15,81.32,44,13,80,11,18.631121,33.15029762,130.1865945,72.48
41.25,130.186706,33.150302,0.15,81.32,44,13,80,11,17.65882,33.15030133,130.1865874,58.89
41.4,130.186706,33.150302,0.15,81.32,48,6,66,11,17.09396,33.15030455,130.1865805,40.77
41.55,130.186676,33.150352,0.15,81.44,47,4,52,11,16.26056,33.15030705,130.1865735,45.3
41.7,130.18666,33.15036,0.15,81.63,47,6,47,11,15.39012,33.15030913,130.1865668,40.77
41.85,130.18666,33.150371,0.15,81.63,47,6,47,11,15.05676,33.1503108,130.1865603,24.915
42,130.186645,33.150371,0.15,81.63,46,12,44,11,14.5382,33.15031207,130.1865539,45.3
42.15,130.18663,33.150379,0.15,80.94,44,19,45,11,13.91778,33.15031253,130.1865478,67.95
42.3,130.186614,33.150382,0.15,80.94,44,21,48,11,13.7048,33.15031267,130.1865418,99.66
42.45,130.186614,33.15039,0.15,80.94,44,21,48,11,13.31588,33.1503121,130.1865361,120.045
42.6,130.186584,33.15039,0.15,79,46,24,54,11,13.427,33.15031105,130.1865305,131.37
42.75,130.186569,33.150398,0.15,79,52,20,53,11,12.85288,33.15030963,130.1865251,142.695
42.9,130.186553,33.150402,0.15,77.69,56,16,44,11,12.7788,33.15030803,130.1865199,158.55
43.05,130.186553,33.150405,0.15,77.69,56,16,44,11,12.6399,33.15030582,130.1865152,172.14
43.2,130.186538,33.150405,0.15,77.69,61,-3,14,11,12.63064,33.15030327,130.1865107,176.67
43.35,130.186508,33.150405,0.15,77.25,59,-25,-19,11,12.98252,33.15030024,130.1865063,165.345
43.5,130.186508,33.150405,0.15,77.25,57,-32,-35,11,13.31588,33.15029675,130.1865025,167.61
43.65,130.186508,33.15039,0.15,77.25,57,-32,-35,11,12.83436,33.15029298,130.1864994,167.61
43.8,130.186462,33.15039,0.15,78.5,53,-35,-56,11,12.90844,33.15028883,130.1864969,158.55
43.95,130.186447,33.150371,0.15,78.5,52,-33,-68,11,12.26024,33.15028469,130.1864947,126.84
44.1,130.186431,33.150356,0.15,79.94,51,-31,-72,11,12.29728,33.15028035,130.186493,108.72
44.25,130.186431,33.150356,0.15,79.94,51,-31,-72,11,12.2695,33.15027575,130.1864922,113.25
44.4,130.186416,33.150337,0.15,79.94,49,-24,-76,11,11.575,33.15027127,130.186492,113.25
44.55,130.186416,33.150337,0.15,80.82,48,-14,-76,11,11.75094,33.15026678,130.1864923,122.31
44.7,130.186416,33.150302,0.15,80.82,49,-11,-76,11,11.9454,33.15026222,130.1864929,108.72
44.85,130.186416,33.150283,0.15,80.82,49,-11,-76,11,11.83428,33.15025792,130.1864939,97.395
45,130.186401,33.150283,0.15,80.94,50,-7,-78,11,11.83428,33.15025375,130.1864953,90.6
45.15,130.186401,33.150264,0.15,80.94,50,-2,-81,11,12.02874,33.15024978,130.1864974,97.395
45.3,130.186401,33.150249,0.15,80.75,50,0,-82,11,12.48248,33.15024565,130.1864996,90.6
45.45,130.186401,33.150249,0.15,80.75,50,0,-82,11,13.2881,33.15024149,130.1865021,83.805
45.6,130.186401,33.150249,0.15,80.75,52,4,-84,11,14.14928,33.15023717,130.1865052,72.48
45.75,130.186401,33.150249,0.15,80.75,52,4,-86,11,14.94564,33.15023273,130.1865088,72.48
45.9,130.186401,33.150249,0.15,81,52,7,-90,11,15.8346,33.15022802,130.1865127,72.48
46.05,130.186401,33.150249,0.15,81,53,9,-91,11,16.16796,33.15022318,130.186517,56.625
46.2,130.186401,33.150249,0.15,80.57,53,11,-91,11,17.00136,33.15021837,130.1865218,40.77
46.35,130.186416,33.150165,0.15,80.57,52,13,-93,11,17.51066,33.15021343,130.1865269,27.18
46.5,130.186431,33.15015,0.15,80.44,51,17,-92,11,18.242201,33.15020825,130.1865323,22.65
46.65,130.186431,33.150135,0.15,80.44,51,17,-92,11,18.973741,33.15020292,130.1865379,22.65
46.8,130.186447,33.150135,0.15,80.44,49,27,-88,11,19.631201,33.1501974,130.1865436,36.24
46.95,130.186447,33.150123,0.15,78.82,47,36,-80,11,20.4645995,33.15019173,130.1865497,56.625
47.1,130.186447,33.150112,0.15,78.82,47,39,-76,11,21.131321,33.1501859,130.186556,49.83
47.25,130.186447,33.150096,0.15,78.82,47,39,-76,11,21.5480205,33.15018007,130.1865624,63.42
47.4,130.186462,33.150096,0.15,77.19,48,44,-70,11,22.224001,33.1501741,130.1865688,49.83
47.55,130.186462,33.150089,0.15,77.19,50,44,-71,11,22.9462805,33.15016771,130.1865755,43.035
47.7,130.186477,33.150077,0.15,75.69,53,45,-72,11,23.594481,33.15016113,130.1865823,45.3
47.85,130.186477,33.150062,0.15,75.69,53,45,-72,11,24.1223,33.15015432,130.1865891,54.36
48,130.186477,33.150062,0.15,75.69,57,46,-75,11,24.65012,33.15014737,130.186596,67.95
48.15,130.186477,33.150051,0.15,73.94,59,46,-76,11,25.2242405,33.15014015,130.1866032,58.89
48.3,130.186492,33.150043,0.15,73.94,61,45,-77,11,25.96504,33.1501327,130.1866105,49.83
48.45,130.186492,33.150043,0.15,73.94,61,45,-77,11,26.437301,33.15012499,130.1866178,49.83
48.6,130.186492,33.150043,0.15,73.94,65,38,-82,11,27.1318,33.15011703,130.1866251,45.3
48.75,130.186508,33.15002,0.15,72.75,68,24,-90,11,27.84482,33.15010873,130.1866325,40.77
48.9,130.186523,33.150009,0.15,72.69,68,17,-93,11,28.44672,33.1501002,130.1866398,31.71
49.05,130.186523,33.150001,0.15,72.69,68,17,-93,11,28.8263795,33.15009151,130.1866472,38.505
49.2,130.186523,33.150001,0.15,72.69,67,7,-98,11,29.187519,33.1500826,130.1866545,40.77
49.35,130.186523,33.149993,0.15,72.5,66,11,-97,11,29.8542405,33.15007345,130.1866617,58.89
49.5,130.186538,33.149982,0.15,72.5,66,14,-95,11,30.465401,33.15006413,130.186669,77.01
49.65,130.186538,33.149974,0.15,72.5,66,14,-95,11,31.05804,33.15005458,130.1866763,101.925
49.8,130.186538,33.149974,0.15,71.19,65,18,-92,11,31.687719,33.1500448,130.1866837,126.84
49.95,130.186538,33.149974,0.15,71.19,66,12,-92,11,32.0488605,33.15003491,130.1866912,142.695
50.1,130.186553,33.149951,0.15,70.63,67,2,-95,11,32.5952,33.15002482,130.1866988,149.49
50.25,130.186553,33.149936,0.15,70.63,67,2,-95,11,32.9656005,33.15001457,130.1867065,140.43
50.4,130.186569,33.149936,0.15,70.63,63,-22,-106,11,33.743439,33.150004,130.1867142,135.9
50.55,130.186584,33.149925,0.15,71.82,58,-33,-116,11,34.3083,33.14999319,130.186722,138.165
50.7,130.186599,33.149909,0.15,71.82,55,-35,-119,11,34.910198,33.14998215,130.18673,144.96
50.85,130.186599,33.149909,0.15,71.82,55,-35,-119,11,35.447281,33.1499708,130.186738,156.285
51,130.186614,33.149894,0.15,73.25,50,-33,-124,11,35.910278,33.14995937,130.1867461,181.2
51.15,130.18663,33.149883,0.15,73.25,46,-31,-127,11,36.5214405,33.14994773,130.1867544,203.85
51.3,130.186645,33.149868,0.15,74.19,43,-31,-128,11,37.077042,33.1499361,130.1867628,226.5
51.45,130.186645,33.149868,0.15,74.19,43,-31,-128,11,37.6141205,33.14992426,130.1867713,224.235
51.6,130.18666,33.149852,0.15,74.19,38,-31,-130,11,38.262321,33.14991222,130.1867798,208.38
51.75,130.186676,33.149837,0.15,77.75,33,-30,-133,11,38.7438395,33.14989991,130.1867885,187.995
51.9,130.186691,33.149814,0.15,77.75,32,-28,-133,11,39.299438,33.14988742,130.1867974,172.14
52.05,130.186691,33.149795,0.15,77.75,32,-28,-133,11,39.743919,33.14987478,130.1868064,158.55
52.2,130.186706,33.149795,0.15,80.38,27,-20,-132,11,39.98468,33.14986197,130.1868154,199.32
52.35,130.186721,33.14978,0.15,80.38,25,-13,-127,11,40.7532595,33.14984893,130.1868247,181.2
52.5,130.186737,33.149765,0.15,81.5,23,-10,-124,11,41.35516,33.14983577,130.1868341,167.61
52.65,130.186737,33.149765,0.15,81.5,23,-10,-124,11,41.9478,33.1498224,130.1868436,160.815
52.8,130.186767,33.149753,0.15,81.5,23,-7,-123,11,42.447842,33.14980887,130.1868532,140.43
52.95,130.186767,33.149753,0.15,83.07,21,-2,-122,11,42.76268,33.14979515,130.1868629,129.105
53.1,130.186813,33.149723,0.15,83.07,20,-1,-121,11,43.281239,33.14978132,130.1868727,126.84
53.25,130.186813,33.149707,0.15,83.07,20,-1,-121,11,43.8646205,33.14976724,130.1868825,169.875
53.4,130.186828,33.149707,0.15,83.38,15,3,-118,11,44.188721,33.14975312,130.1868924,176.67
53.55,130.186843,33.149692,0.15,83.38,13,2,-116,11,44.55912,33.1497389,130.1869023,160.815
53.7,130.186874,33.149677,0.15,83.82,12,1,-116,11,44.92952,33.14972457,130.1869123,163.08
53.85,130.186874,33.149662,0.15,83.82,12,1,-116,11,45.5128995,33.14971002,130.1869224,160.815
54,130.186889,33.149662,0.15,83.82,8,3,-116,11,46.13332,33.14969538,130.1869327,154.02
54.15,130.186904,33.149646,0.15,84.75,6,2,-113,11,46.24444,33.14968055,130.1869431,133.635
54.3,130.186935,33.149631,0.15,84.75,4,4,-110,11,46.411121,33.1496656,130.1869537,131.37
54.45,130.186935,33.149631,0.15,84.75,4,4,-110,11,46.4389,33.14965063,130.1869642,131.37
54.6,130.186935,33.149631,0.15,85.19,4,6,-108,11,46.466679,33.14963572,130.1869748,117.78
54.75,130.186965,33.149589,0.15,85.19,7,6,-106,11,46.392601,33.14962077,130.1869851,99.66
54.9,130.186981,33.14957,0.15,85.19,8,8,-107,11,45.9296,33.14960592,130.1869955,117.78
55.05,130.186981,33.149555,0.15,85.19,8,8,-107,11,45.781441,33.14959138,130.1870058,113.25
55.2,130.186996,33.149555,0.15,85.19,7,11,-108,11,45.411041,33.14957687,130.187016,126.84
55.35,130.187011,33.149543,0.15,85.19,7,10,-109,11,45.392521,33.14956247,130.1870263,129.105
55.5,130.187026,33.149528,0.15,85.19,6,9,-109,11,45.374001,33.14954815,130.1870367,131.37
55.65,130.187026,33.149509,0.15,85.19,6,9,-109,11,45.3277,33.14953393,130.1870472,129.105
55.8,130.187042,33.149509,0.15,85.07,5,7,-108,11,45.299919,33.1495196,130.1870576,113.25
55.95,130.187057,33.14949,0.15,85.07,4,6,-108,11,45.2721385,33.14950518,130.1870679,124.575
56.1,130.187072,33.149471,0.15,85.13,3,6,-108,11,45.244362,33.14949073,130.1870783,113.25
56.25,130.187072,33.149456,0.15,85.13,3,6,-108,11,45.318439,33.14947623,130.1870887,122.31
56.4,130.187103,33.149456,0.15,85.13,3,7,-107,11,45.35548,33.14946165,130.187099,117.78
56.55,130.187118,33.14944,0.15,85.38,3,8,-106,11,45.4573405,33.14944698,130.1871092,135.9
56.7,130.187133,33.149421,0.15,85.38,2,8,-106,11,45.52216,33.14943235,130.1871196,126.84
56.85,130.187133,33.149402,0.15,85.38,2,8,-106,11,45.6240195,33.14941777,130.1871301,124.575
57,130.187149,33.149402,0.15,85.44,1,8,-106,11,45.651798,33.1494032,130.1871407,126.84
57.15,130.187164,33.149383,0.15,85.44,1,8,-105,11,45.707359,33.14938856,130.1871512,124.575
57.3,130.187179,33.149364,0.15,85.63,1,8,-104,11,45.72588,33.1493739,130.1871617,117.78
57.45,130.187179,33.149349,0.15,85.63,1,8,-104,11,45.8184795,33.14935911,130.1871721,115.515
57.6,130.187194,33.149349,0.15,85.63,1,9,-104,11,45.9296,33.14934425,130.1871825,122.31
57.75,130.18721,33.149326,0.15,85.44,1,9,-104,11,46.087021,33.14932944,130.1871929,129.105
57.9,130.187225,33.149311,0.15,85.44,0,9,-104,11,46.485199,33.14931455,130.1872034,117.78
58.05,130.187225,33.149291,0.15,85.44,0,9,-104,11,46.383341,33.14929963,130.1872138,133.635
58.2,130.18724,33.149291,0.15,85.69,0,9,-103,11,46.392601,33.14928463,130.1872242,144.96
58.35,130.187255,33.149272,0.15,85.69,0,9,-103,11,46.4666805,33.14926967,130.1872346,142.695
58.5,130.187271,33.149253,0.15,85.38,0,7,-103,11,46.577801,33.14925468,130.1872452,149.49
58.65,130.187271,33.14923,0.15,85.38,0,7,-103,11,46.6611405,33.14923965,130.1872559,138.165
58.8,130.187286,33.14923,0.15,85.38,0,7,-102,11,46.781521,33.14922458,130.1872666,122.31
58.95,130.187301,33.149211,0.15,85.38,0,7,-102,11,46.7722605,33.14920945,130.1872771,131.37
59.1,130.187316,33.149192,0.15,85.38,0,9,-102,11,46.837078,33.1491943,130.1872876,113.25
59.25,130.187316,33.149173,0.15,85.38,0,9,-102,11,46.994499,33.14917914,130.187298,126.84
59.4,130.187332,33.149173,0.15,85.63,0,9,-102,11,47.077839,33.14916395,130.1873085,122.31
59.55,130.187347,33.14915,0.15,85.63,0,11,-103,11,47.1704405,33.14914864,130.1873189,129.105
59.7,130.187362,33.149131,0.15,85.19,0,11,-103,11,47.263039,33.14913327,130.1873293,126.84
59.85,130.187377,33.149116,0.15,85.19,0,11,-103,11,47.4112015,33.1491178,130.1873397,138.165
60,130.187377,33.149116,0.15,85.19,0,10,-102,11,47.485279,33.14910228,130.1873501,149.49
60.15,130.187393,33.149097,0.15,85.07,0,9,-102,11,47.577881,33.14908677,130.1873605,140.43
60.3,130.187408,33.149074,0.15,85.07,0,8,-102,11,47.633438,33.14907112,130.187371,149.49
60.45,130.187408,33.149051,0.15,85.07,0,8,-102,11,47.679739,33.14905544,130.1873814,129.105
60.6,130.187423,33.149051,0.15,85.19,0,8,-102,11,47.763081,33.14903975,130.1873919,131.37
60.75,130.187438,33.149032,0.15,85.19,0,8,-102,11,47.83716,33.14902404,130.1874024,120.045
60.9,130.187454,33.149013,0.15,85.13,0,9,-102,11,47.91124,33.14900832,130.1874129,135.9
61.05,130.187454,33.14899,0.15,85.13,0,9,-102,11,47.976061,33.14899263,130.1874235,144.96
61.2,130.187469,33.14899,0.15,85.13,-1,10,-102,11,48.003841,33.14897695,130.1874342,131.37
61.35,130.187484,33.148971,0.15,85.38,-1,9,-102,11,48.068661,33.14896115,130.1874449,135.9
61.5,130.1875,33.148952,0.15,85.38,0,9,-101,11,48.11496,33.1489454,130.1874555,122.31
61.65,130.1875,33.148933,0.15,85.38,0,9,-101,11,48.1520005,33.1489297,130.1874661,131.37
61.8,130.187515,33.148933,0.15,85.25,-1,9,-101,11,48.207561,33.14891388,130.1874766,135.9
61.95,130.18753,33.14891,0.15,85.25,-1,9,-101,11,48.2723785,33.14889808,130.1874872,124.575
62.1,130.187545,33.148891,0.15,84.94,-1,10,-100,11,48.31868,33.14888225,130.1874977,126.84
62.25,130.187545,33.148868,0.15,84.94,-1,10,-100,11,48.3001595,33.14886657,130.1875082,122.31
62.4,130.187561,33.148868,0.15,84.94,-2,10,-101,11,48.244598,33.14885098,130.1875188,126.84
62.55,130.187561,33.148868,0.15,84.82,-3,12,-101,11,48.2075615,33.14883539,130.1875293,133.635
62.7,130.187606,33.148826,0.15,84.82,-3,10,-101,11,48.11496,33.14881983,130.1875399,122.31
62.85,130.187606,33.148807,0.15,84.82,-3,10,-101,11,48.0501405,33.14880428,130.1875504,110.985
63,130.187606,33.148807,0.15,85,-3,10,-101,11,47.92976,33.1487888,130.187561,113.25
63.15,130.187622,33.148788,0.15,85,-3,11,-100,11,47.8464205,33.14877338,130.1875717,117.78
63.3,130.187622,33.148788,0.15,84.69,-3,12,-101,11,47.52232,33.14875803,130.1875823,126.84
63.45,130.187622,33.14875,0.15,84.69,-3,12,-101,11,47.5037995,33.14874273,130.187593,129.105
63.6,130.187652,33.14875,0.15,84.69,-3,12,-101,11,47.54084,33.14872738,130.1876036,135.9
63.75,130.187667,33.148731,0.15,84.69,-3,9,-101,11,47.485281,33.14871205,130.1876144,138.165
63.9,130.187683,33.148708,0.15,84.69,-3,9,-101,11,47.429722,33.14869678,130.1876251,135.9
64.05,130.187683,33.148689,0.15,84.69,-3,9,-101,11,47.392681,33.14868153,130.187636,138.165
64.2,130.187698,33.148689,0.15,84.57,-3,8,-101,11,47.300079,33.14866628,130.1876468,135.9
64.35,130.187713,33.14867,0.15,84.57,-3,7,-101,11,47.0408,33.14865103,130.1876577,133.635
64.5,130.187728,33.148651,0.15,84.38,-4,8,-101,11,47.15192,33.1486358,130.1876686,113.25
64.65,130.187728,33.148628,0.15,84.38,-4,8,-101,11,47.198221,33.1486205,130.1876795,120.045
64.8,130.187744,33.148628,0.15,84.38,-4,8,-101,11,47.11488,33.14860515,130.1876903,131.37
64.95,130.187759,33.148609,0.15,84.88,-4,10,-102,11,46.966721,33.14858991,130.1877011,117.78
65.1,130.187774,33.14859,0.15,84.88,-4,11,-102,11,46.837078,33.1485747,130.1877119,144.96
65.25,130.187774,33.148571,0.15,84.88,-4,11,-102,11,46.7722585,33.14855937,130.1877225,140.43
65.4,130.187789,33.148571,0.15,84.38,-5,10,-102,11,46.688919,33.14854417,130.1877331,122.31
65.55,130.187805,33.148548,0.15,84.38,-6,9,-101,11,46.6240995,33.14852901,130.1877437,142.695
65.7,130.18782,33.148529,0.15,84.57,-6,9,-100,11,46.55928,33.14851388,130.1877542,131.37
65.85,130.187835,33.148509,0.15,84.57,-6,9,-100,11,46.485199,33.14849876,130.1877646,120.045
66,130.187835,33.148509,0.15,84.57,-6,9,-100,11,46.374081,33.1484837,130.187775,126.84
66.15,130.18785,33.14849,0.15,84.38,-7,10,-101,11,46.24444,33.14846872,130.1877855,126.84
66.3,130.187866,33.148471,0.15,84.38,-7,10,-101,11,46.170361,33.1484538,130.1877962,117.78
66.45,130.187881,33.148448,0.15,84.38,-7,10,-101,11,46.087019,33.14843892,130.1878069,117.78
66.6,130.187881,33.148448,0.15,84.44,-7,10,-101,11,46.040722,33.14842398,130.1878176,113.25
66.75,130.187896,33.148429,0.15,84.44,-8,11,-101,11,46.0592405,33.148409,130.1878285,106.455
66.9,130.187896,33.14841,0.15,84.32,-7,12,-101,11,46.096279,33.14839403,130.1878392,104.19
67.05,130.187927,33.148391,0.15,84.32,-7,12,-101,11,46.0684985,33.14837919,130.1878499,120.045
67.2,130.187927,33.148391,0.15,84.32,-7,13,-101,11,46.022202,33.14836435,130.1878606,122.31
67.35,130.187927,33.148391,0.15,84.19,-7,13,-102,11,45.95738,33.14834947,130.1878714,138.165
67.5,130.187957,33.148357,0.15,84.19,-8,10,-102,11,45.94812,33.14833455,130.1878821,140.43
67.65,130.187973,33.148334,0.15,84.19,-8,10,-102,11,45.96664,33.14831959,130.1878928,144.96
67.8,130.187973,33.148334,0.15,84.19,-9,9,-102,11,45.985161,33.1483047,130.1879034,131.37
67.95,130.187988,33.148315,0.15,84.19,-10,8,-101,11,45.93886,33.14828988,130.1879139,129.105
68.1,130.187988,33.148315,0.15,83.94,-11,8,-101,11,45.892559,33.14827592,130.1879237,154.02
68.25,130.187988,33.148277,0.15,83.94,-11,8,-101,11,45.892559,33.14826202,130.1879341,131.37
68.4,130.188018,33.148277,0.15,83.94,-12,9,-101,11,45.911079,33.14824737,130.1879453,113.25
68.55,130.188034,33.148254,0.15,84.32,-12,8,-101,11,45.9295995,33.14823262,130.1879561,124.575
68.7,130.188034,33.148235,0.15,84.32,-13,10,-100,11,45.96664,33.14821757,130.187967,117.78
68.85,130.188034,33.148216,0.15,84.32,-13,10,-100,11,46.0129415,33.14820277,130.1879774,101.925
69,130.188049,33.148216,0.15,84.13,-12,10,-99,11,46.059238,33.14818808,130.1879878,131.37
69.15,130.188064,33.148197,0.15,84.13,-11,12,-98,11,46.022202,33.14817338,130.1879982,138.165
69.3,130.188079,33.148178,0.15,83.63,-11,11,-98,11,46.022202,33.14815835,130.1880088,140.43
69.45,130.188079,33.148159,0.15,83.63,-11,11,-98,11,46.0314595,33.14814322,130.1880196,115.515
69.6,130.188095,33.148159,0.15,83.63,-12,8,-97,11,46.003681,33.14812858,130.1880296,113.25
69.75,130.18811,33.148136,0.15,84.07,-11,8,-95,11,45.9666405,33.14811384,130.1880405,138.165
69.9,130.188125,33.148117,0.15,84.07,-8,8,-94,11,45.9296,33.14809943,130.1880511,113.25
70.05,130.188125,33.148094,0.15,84.07,-8,8,-94,11,45.8832985,33.14808478,130.1880619,110.985
70.2,130.188125,33.148094,0.15,84.69,-8,7,-94,11,45.818481,33.14807005,130.1880726,117.78
70.35,130.18814,33.148075,0.15,84.69,-6,10,-95,11,45.8647785,33.14805518,130.1880833,131.37
70.5,130.188156,33.148056,0.15,84,-5,9,-96,11,45.94812,33.14804048,130.1880939,126.84
70.65,130.188156,33.148056,0.15,84,-5,9,-96,11,46.04072,33.14802548,130.1881043,131.37
70.8,130.188156,33.148056,0.15,84,-4,9,-95,11,46.13332,33.1480104,130.1881146,126.84
70.95,130.188156,33.148056,0.15,84.69,-4,7,-95,11,46.170361,33.14799546,130.1881248,133.635
71.1,130.188156,33.148056,0.15,84.69,-3,7,-95,11,46.114799,33.14798067,130.1881343,122.31
71.25,130.188156,33.148056,0.15,84.69,-3,7,-95,11,46.0221995,33.14796555,130.1881443,108.72
71.4,130.188156,33.148056,0.15,84.69,-2,7,-95,11,45.485119,33.14795038,130.1881542,86.07
71.55,130.188156,33.148056,0.15,84.94,-1,9,-95,11,45.596241,33.14793533,130.188164,122.31
71.7,130.188217,33.14793,0.15,84.32,-1,10,-96,11,45.72588,33.14792043,130.1881739,135.9
71.85,130.188217,33.147911,0.15,84.32,-1,10,-96,11,45.6980995,33.1479053,130.1881836,108.72
72,130.188232,33.147911,0.15,84.32,-1,10,-96,11,45.207321,33.14789023,130.1881935,126.84
72.15,130.188247,33.147891,0.15,84.82,0,9,-96,11,45.216579,33.14787527,130.1882034,115.515
72.3,130.188262,33.147872,0.15,84.82,0,9,-96,11,45.188801,33.1478604,130.1882133,122.31
72.45,130.188262,33.147853,0.15,84.82,0,9,-96,11,45.25362,33.14784535,130.1882231,124.575
72.6,130.188278,33.147853,0.15,84.82,0,8,-96,11,45.262878,33.14783042,130.1882334,117.78
72.75,130.188293,33.14783,0.15,84.82,1,9,-96,11,45.309179,33.14781543,130.1882436,131.37
72.9,130.188293,33.147811,0.15,85.13,2,8,-96,11,45.244362,33.14780047,130.1882539,135.9
73.05,130.188293,33.147789,0.15,85.13,2,8,-96,11,45.2165815,33.14778581,130.1882641,124.575
73.2,130.188308,33.147789,0.15,85.13,2,8,-96,11,45.15176,33.14777115,130.1882742,113.25
73.35,130.188323,33.147769,0.15,84.94,4,8,-96,11,45.0684185,33.1477566,130.1882848,115.515
73.5,130.188339,33.147747,0.15,84.94,5,9,-97,11,45.003601,33.14774223,130.1882953,95.13
73.65,130.188339,33.147731,0.15,84.94,5,9,-97,11,44.9202595,33.14772768,130.1883054,99.66
73.8,130.188354,33.147731,0.15,84.75,5,10,-98,11,44.5406,33.14771298,130.1883154,108.72
73.95,130.188369,33.147708,0.15,84.75,5,11,-100,11,44.596161,33.14769837,130.1883255,104.19
74.1,130.188385,33.147693,0.15,84.69,4,11,-101,11,44.522079,33.14768383,130.1883355,108.72
74.25,130.188385,33.14767,0.15,84.69,4,11,-101,11,44.410961,33.14766922,130.1883455,115.515
74.4,130.188385,33.14767,0.15,84.69,4,12,-102,11,44.318359,33.1476546,130.1883555,117.78
74.55,130.188415,33.147655,0.15,85,3,11,-103,11,44.207241,33.14764008,130.1883656,110.985
74.7,130.18843,33.147636,0.15,85,2,9,-104,11,44.15168,33.14762563,130.1883758,126.84
74.85,130.18843,33.147621,0.15,85,2,9,-104,11,44.096119,33.14761133,130.1883859,135.9
75,130.188446,33.147621,0.15,84.57,1,9,-104,11,44.022041,33.14759688,130.188396,108.72
75.15,130.188461,33.147602,0.15,84.57,0,8,-104,11,43.76276,33.14758241,130.1884056,106.455
75.3,130.188476,33.147583,0.15,84.75,0,10,-104,11,43.596081,33.1475683,130.1884153,113.25
75.45,130.188491,33.147563,0.15,84.75,0,10,-104,11,43.5312595,33.14755423,130.1884248,104.19
75.6,130.188491,33.147563,0.15,84.75,-1,10,-105,11,43.225681,33.14754028,130.1884345,81.54
75.75,130.188507,33.147548,0.15,84.69,-3,10,-105,11,42.7719405,33.14752629,130.1884442,97.395
75.9,130.188522,33.147529,0.15,84.69,-3,11,-105,11,42.35524,33.14751245,130.1884539,117.78
76.05,130.188522,33.14751,0.15,84.69,-3,11,-105,11,42.2533795,33.14749865,130.188464,117.78
76.2,130.188522,33.14751,0.15,84.19,-4,11,-105,11,42.207081,33.14748472,130.1884743,108.72
76.35,130.188537,33.147495,0.15,84.19,-4,10,-104,11,41.6422215,33.14747095,130.1884845,115.515
76.5,130.188552,33.147476,0.15,84.44,-5,10,-105,11,40.836601,33.14745747,130.1884947,117.78
76.65,130.188583,33.14746,0.15,84.44,-5,10,-105,11,40.9755,33.14744394,130.1885048,120.045
76.8,130.188583,33.14746,0.15,84.44,-5,8,-105,11,40.632881,33.14743077,130.1885149,122.31
76.95,130.188598,33.147445,0.15,84.25,-6,9,-106,11,40.2439595,33.14741762,130.1885247,95.13
77.1,130.188613,33.147422,0.15,84.25,-8,11,-106,11,40.206921,33.14740428,130.1885339,122.31
77.25,130.188613,33.147407,0.15,84.25,-8,11,-106,11,39.438341,33.14739123,130.1885428,81.54
77.4,130.188629,33.147407,0.15,83.75,-9,13,-106,11,38.929039,33.1473783,130.1885517,67.95
77.55,130.188644,33.147388,0.15,83.75,-11,12,-105,11,38.4567815,33.14736566,130.1885609,86.07
77.7,130.188659,33.147373,0.15,83.82,-12,17,-105,11,38.354919,33.14735303,130.1885699,77.01
77.85,130.188659,33.147373,0.15,83.82,-12,17,-105,11,37.89192,33.14734031,130.1885789,74.745
78,130.188659,33.147373,0.15,83.82,-14,18,-105,11,37.447441,33.14732793,130.188588,72.48
78.15,130.188674,33.147342,0.15,83.07,-14,17,-102,11,36.743679,33.14731612,130.188597,54.36
78.3,130.18869,33.147327,0.15,83.07,-13,17,-101,11,35.98436,33.14730448,130.1886057,99.66
78.45,130.18869,33.147312,0.15,83.07,-13,17,-101,11,35.7713795,33.14729321,130.1886142,92.865
78.6,130.188705,33.147312,0.15,82.57,-12,18,-101,11,35.169479,33.14728193,130.1886227,81.54
78.75,130.188705,33.1473,0.15,82.57,-10,14,-102,11,34.7898195,33.14727087,130.188631,81.54
78.9,130.18872,33.147289,0.15,82.32,-9,13,-106,11,34.484241,33.14725988,130.1886391,72.48
79.05,130.18872,33.14727,0.15,82.32,-9,13,-106,11,33.937899,33.14724911,130.1886468,74.745
79.2,130.188735,33.14727,0.15,82.32,-9,13,-108,11,33.03968,33.14723825,130.1886545,72.48
79.35,130.188751,33.147258,0.15,81.88,-12,15,-113,11,32.40074,33.14722758,130.1886621,70.215
79.5,130.188766,33.147247,0.15,81.88,-14,15,-115,11,31.780319,33.14721692,130.1886696,99.66
79.65,130.188766,33.147235,0.15,81.88,-14,15,-115,11,31.81736,33.14720647,130.1886768,88.335
79.8,130.188781,33.147235,0.15,81.07,-15,15,-115,11,31.169161,33.1471961,130.1886837,86.07
79.95,130.188796,33.147224,0.15,81.07,-17,15,-114,11,30.66912,33.14718603,130.1886908,81.54
80.1,130.188796,33.147224,0.15,80.5,-17,17,-114,11,29.891279,33.14717627,130.188698,77.01
80.25,130.188796,33.147224,0.15,80.5,-17,17,-116,11,29.5579205,33.14716664,130.1887052,86.07
80.4,130.188796,33.147224,0.15,80.5,-20,20,-119,11,28.94676,33.14715715,130.1887121,77.01
80.55,130.188842,33.147186,0.15,78.82,-21,21,-120,11,28.63192,33.14714783,130.1887187,83.805
80.7,130.188858,33.147178,0.15,78.82,-25,22,-120,11,28.372641,33.14713887,130.1887251,72.48
80.85,130.188858,33.147178,0.15,78.82,-25,22,-120,11,28.30782,33.14713042,130.1887312,79.275
81,130.188858,33.147178,0.15,78.82,-27,22,-119,11,27.42812,33.1471223,130.1887373,81.54
81.15,130.188873,33.147155,0.15,78.13,-31,23,-115,11,26.8910395,33.14711453,130.1887432,74.745
81.3,130.188873,33.147155,0.15,78.13,-34,21,-112,11,26.42804,33.14710685,130.1887489,72.48
81.45,130.188873,33.147155,0.15,78.13,-34,21,-112,11,26.00208,33.14709925,130.1887544,74.745
81.6,130.188873,33.147155,0.15,76.82,-35,21,-112,11,25.613159,33.14709185,130.1887599,58.89
81.75,130.188873,33.147155,0.15,76.82,-35,23,-113,11,25.36314,33.14708441,130.1887652,70.215
81.9,130.188934,33.147113,0.15,76.19,-36,26,-114,11,25.094601,33.14707683,130.1887705,58.89
82.05,130.188934,33.147102,0.15,76.19,-36,26,-114,11,24.0297,33.1470695,130.1887757,58.89
82.2,130.188949,33.147102,0.15,75.5,-36,25,-115,11,23.335199,33.14706235,130.1887808,54.36
82.35,130.188949,33.14709,0.15,75.5,-38,26,-115,11,22.77034,33.14705542,130.1887857,45.3
82.5,130.188964,33.147083,0.15,74.94,-41,26,-113,11,22.29808,33.1470485,130.1887908,54.36
82.65,130.188964,33.147075,0.15,74.94,-41,26,-113,11,21.93694,33.14704178,130.1887953,38.505
82.8,130.188964,33.147075,0.15,74.94,-42,25,-111,11,21.26096,33.14703532,130.1887996,40.77
82.95,130.18898,33.147068,0.15,75,-44,18,-105,11,20.872041,33.14702885,130.1888038,29.445
83.1,130.18898,33.14706,0.15,75,-43,13,-101,11,20.07568,33.14702268,130.1888079,36.24
83.25,130.18898,33.147052,0.15,75,-43,13,-101,11,19.3534005,33.14701667,130.1888119,27.18
83.4,130.18898,33.147052,0.15,74.63,-43,13,-100,11,18.77928,33.14701075,130.1888158,22.65
83.55,130.188995,33.147045,0.15,74.63,-43,14,-102,11,18.390361,33.14700493,130.1888197,27.18
83.7,130.188995,33.147041,0.15,74.13,-42,17,-107,11,17.742161,33.14699915,130.1888236,27.18
83.85,130.188995,33.147037,0.15,74.13,-42,17,-107,11,17.4643605,33.14699349,130.1888276,20.385
84,130.188995,33.147037,0.15,74.13,-41,19,-110,11,16.63096,33.1469882,130.1888315,27.18
84.15,130.18901,33.147029,0.15,73.5,-41,24,-115,11,16.07536,33.14698288,130.1888354,29.445
84.3,130.18901,33.147022,0.15,73.5,-40,28,-121,11,15.5568,33.14697787,130.1888388,36.24
84.45,130.18901,33.147018,0.15,73.5,-40,28,-121,11,15.44568,33.14697322,130.1888421,38.505
84.6,130.18901,33.147018,0.15,72.94,-39,31,-123,11,15.01972,33.14696825,130.1888458,40.77
84.75,130.189025,33.147014,0.15,72.94,-39,36,-127,11,14.87156,33.14696318,130.1888492,43.035
84.9,130.189025,33.14701,0.15,71.94,-41,39,-128,11,14.05668,33.14695827,130.1888526,45.3
85.05,130.189025,33.14701,0.15,71.94,-41,39,-128,11,13.3807,33.14695378,130.1888557,40.77
85.2,130.189025,33.14701,0.15,71.94,-45,38,-125,11,12.66768,33.14694957,130.1888587,36.24
85.35,130.189025,33.14701,0.15,71.94,-48,36,-121,11,12.19542,33.14694553,130.1888617,27.18
85.5,130.189041,33.146991,0.15,70.69,-54,28,-112,11,11.61204,33.14694137,130.1888647,18.12
85.65,130.189056,33.146987,0.15,70.69,-54,28,-112,11,11.22312,33.14693743,130.1888677,13.59
85.8,130.189056,33.146987,0.15,70.44,-56,22,-106,11,10.50084,33.14693372,130.1888704,9.06
85.95,130.189056,33.14698,0.15,70.44,-57,4,-96,11,9.84338,33.14693033,130.1888728,4.53
86.1,130.189056,33.146976,0.15,69.75,-55,-10,-87,11,8.92664,33.1469273,130.1888748,4.53
86.25,130.189056,33.146976,0.15,69.75,-55,-10,-87,11,8.16732,33.14692465,130.1888767,4.53
86.4,130.189056,33.146976,0.15,69.75,-55,-18,-82,11,7.37096,33.1469222,130.1888783,4.53
86.55,130.189056,33.146972,0.15,69.13,-55,-21,-81,11,6.77832,33.14692003,130.1888797,13.59
86.7,130.189071,33.146968,0.15,69.13,-55,-34,-76,11,6.14864,33.14691808,130.1888811,13.59
86.85,130.189071,33.146968,0.15,69.13,-55,-34,-76,11,5.63934,33.1469163,130.1888823,6.795
87,130.189071,33.146968,0.15,68.07,-52,-43,-67,11,4.50036,33.14691503,130.1888831,4.53
87.15,130.189071,33.146968,0.15,68.07,-46,-48,-61,11,4.2596,33.14691387,130.1888839,4.53
87.3,130.189071,33.146968,0.15,68.07,-37,-49,-53,11,3.68548,33.14691265,130.1888846,4.53
87.45,130.189071,33.146968,0.15,68.07,-37,-49,-53,11,3.241,33.1469117,130.1888854,4.53
87.6,130.189071,33.146968,0.15,68.13,-33,-48,-51,11,2.51872,33.14691108,130.1888859,4.53
87.75,130.189071,33.146968,0.15,68.13,-26,-47,-46,11,2.13906,33.14691032,130.1888862,6.795
87.9,130.189071,33.146968,0.15,68.25,-22,-45,-44,11,1.53716,33.1469096,130.1888863,4.53
88.05,130.189071,33.146968,0.15,68.25,-22,-45,-44,11,0.84266,33.14690924,130.1888861,4.53
88.2,130.189071,33.146957,0.15,68.13,-17,-43,-40,11,0.44448,33.14690922,130.188886,4.53
88.35,130.189071,33.146961,0.15,68.13,-15,-42,-38,11,0.25928,33.14690938,130.1888858,4.53
88.5,130.189071,33.146961,0.15,68.13,-9,-41,-33,11,0.42596,33.14690958,130.1888856,9.06
88.65,130.189071,33.146961,0.15,68.13,-9,-41,-33,11,0.48152,33.14690983,130.1888857,6.795
88.8,130.189056,33.146961,0.15,68.13,0,-40,-26,11,0.5556,33.14690998,130.1888858,13.59
88.95,130.189056,33.146961,0.15,67.88,3,-39,-23,11,0.53708,33.14690989,130.1888854,15.855
89.1,130.189056,33.146961,0.15,67.88,7,-43,-18,11,0.463,33.14691,130.1888849,18.12
89.25,130.189056,33.146961,0.15,67.88,7,-43,-18,11,0.20372,33.14691014,130.1888844,9.06
89.4,130.189056,33.146961,0.15,67.75,11,-44,-15,11,0.0926,33.14691045,130.1888839,4.53
89.55,130.189056,33.146965,0.15,67.75,12,-44,-14,11,0.21298,33.14691076,130.1888836,0
89.7,130.189056,33.146965,0.15,67.94,11,-44,-14,11,0.33336,33.14691108,130.1888831,0
89.85,130.189056,33.146965,0.15,67.94,11,-44,-14,11,0.463,33.14691126,130.1888828,0
90,130.189056,33.146965,0.15,67.94,10,-45,-15,11,0.222,33.1468431,130.1890038,0
